{"_id":{"$oid":"587590e0734d1d7387baa184"},"name":"500 Startups - San Francisco","address":"814 Mission Street, 6th Floor","city":"San Francisco","state":"California","zip":"94103","country":"United States","lat":37.784445,"lng":-122.404952,"icon":"500.png","url":"http://500.co"}
{"_id":{"$oid":"5875a4e3734d1d7387baa684"},"name":"500 Startups - Silicon Valley","address":"444 Castro St, Suite 1200","city":"Mountain View","state":"California","zip":"94041","country":"United States","lat":37.390673,"lng":-122.081656,"icon":"500.png","url":"http://500.co"}
{"_id":{"$oid":"58781a6c734d1d50c5139302"},"name":"WePow","address":"19925 Stevens Creek Blvd., Suite 100","city":"Cupertino","state":"California","zip":"95014","country":"United States","lat":37.323475,"lng":-122.021609,"icon":"wepow.png","url":"http://wepow.com","batch":"Silicon Valley Batch 001","crunchbase_url":"https://www.crunchbase.com/organization/wepow"}
{"_id":{"$oid":"58781c6a734d1d50c51393d0"},"name":"LookSharp","address":"425 2nd St, Suite 201","city":"San Francisco","state":"California","zip":"94107","country":"United States","lat":37.784312,"lng":-122.394425,"icon":"looksharp.png","url":"http://looksharp.com","batch":"Silicon Valley Batch 001","crunchbase_url":"https://www.crunchbase.com/organization/internmatch"}
{"_id":{"$oid":"58781dfa734d1d50c51394ec"},"name":"ThinkParametric","icon":"thinkparametric.png","url":"http://thinkparametric.com/","batch":"Silicon Valley Batch 001","crunchbase_url":"https://www.crunchbase.com/organization/think-parametric"}
{"_id":{"$oid":"58781fbc734d1d50c51395e9"},"name":"Kudo","address":"Kudoplex 2, Jl. Radio Dalam Raya No.9, Gedung Grandlucky Lantai 2","city":"Gandaria Utara, Kebayoran Baru","state":"Jakarta","country":"Indonesia","zip":"12140","lat":-6.2539657,"lng":106.7887073,"icon":"kudo.png","url":"http://kudo.co.id","batch":"Silicon Valley Batch 001","crunchbase_url":"https://www.crunchbase.com/organization/kudo-2"}
{"_id":{"$oid":"587820ea734d1d50c5139657"},"name":"PerkHub","address":"400 Second St, Suite 400","city":"San Francisco","state":"California","zip":"95014","country":"United States","lat":37.78392,"lng":-122.395255,"icon":"perkhub.png","url":"http://perkhub.com","batch":"Silicon Valley Batch 001","crunchbase_url":"https://www.crunchbase.com/organization/perkhub"}
{"_id":{"$oid":"58782178734d1d50c5139662"},"name":"Tinfoil Security","address":"2483 Old Middlefield Way, Suite 207","city":"Mountain View","state":"California","zip":"94043","country":"United States","lat":37.414383,"lng":-122.099102,"icon":"tinfoil.png","url":"http://tinfoilsecurity.com","batch":"Silicon Valley Batch 001","crunchbase_url":"https://www.crunchbase.com/organization/tinfoil-security"}
{"_id":{"$oid":"58782213734d1d50c5139668"},"name":"Vidcaster","address":"55 New Montgomery St, Suite 608","city":"San Francisco","state":"California","zip":"94105","country":"United States","lat":37.788242,"lng":-122.401051,"icon":"vidcaster.png","url":"http://vidcaster.com","batch":"Silicon Valley Batch 001","crunchbase_url":"https://www.crunchbase.com/organization/vidcaster"}
{"_id":{"$oid":"587822a9734d1d50c5139675"},"name":"Snapette","icon":"snapette.png","url":"http://snapette.com","batch":"Silicon Valley Batch 001","crunchbase_url":"https://www.crunchbase.com/organization/snapette"}
{"_id":{"$oid":"587832ec734d1d50c5139ac8"},"name":"LaunchBit","address":"317 S. 6th Street","city":"Las Vegas","state":"Nevada","zip":"89101","country":"United States","lat":36.165638,"lng":-115.141022,"icon":"launchbit.png","url":"http://launchbit.com/","batch":"Silicon Valley Batch 001","crunchbase_url":"https://www.crunchbase.com/organization/launchbit"}
{"_id":{"$oid":"58783353734d1d50c5139acb"},"name":"LaunchRock","icon":"launchrock.png","url":"http://launchrock.com","batch":"Silicon Valley Batch 001","crunchbase_url":"http://launchrock.com"}
{"_id":{"$oid":"58783446734d1d50c5139ae3"},"name":"BugHerd","icon":"bugherd.png","address":"102/175b Stephen St","city":"Yarraville","state":"Victoria","country":"Australia","zip":"3013","lat":-37.820452,"lng":144.893967,"url":"http://bugherd.com","batch":"Silicon Valley Batch 001","crunchbase_url":"https://www.crunchbase.com/product/bugherd"}
{"_id":{"$oid":"5879985d734d1d50c514121a"},"name":"Desde El Ring","icon":"desdeelring.png","url":"http://desdeelring.com","batch":"Silicon Valley Batch 002","crunchbase_url":null}
{"_id":{"$oid":"58799913734d1d50c5141237"},"name":"SearchMan","icon":"searchman.png","url":"https://searchman.com/","batch":"Silicon Valley Batch 002","crunchbase_url":"https://www.crunchbase.com/organization/searchman"}
{"_id":{"$oid":"587999dc734d1d50c5141243"},"name":"Love With Food","address":"561 Pilgrim Dr, Suite A","city":"Foster City","state":"California","zip":"94404","country":"United States","lat":37.563566,"lng":-122.268618,"icon":"lovewithfood.png","url":"http://lovewithfood.com","batch":"Silicon Valley Batch 002","crunchbase_url":"https://www.crunchbase.com/organization/love-with-food"}
{"_id":{"$oid":"58799a5a734d1d50c514124b"},"name":"Kibin","icon":"kibin.png","url":"http://kibin.com","batch":"Silicon Valley Batch 002","crunchbase_url":"https://www.crunchbase.com/organization/kibin"}
{"_id":{"$oid":"58799acd734d1d50c514124d"},"name":"Craft Coffee","address":"140 Metropolitan Ave, Floor 3","city":"Brooklyn","state":"New York","zip":"11249","country":"United States","lat":40.715979,"lng":-73.962363,"icon":"craftcoffee.png","url":"http://craftcoffee.com","batch":"Silicon Valley Batch 002","crunchbase_url":"https://www.crunchbase.com/organization/craftcoffee"}
{"_id":{"$oid":"58799cb8734d1d50c5141281"},"name":"Boatbound","address":"500 Yale Ave N, Suite 100","city":"Seattle","state":"Washington","zip":"98109","country":"United States","lat":47.623428,"lng":-122.330084,"icon":"boatbound.png","url":"http://boatbound.co","batch":"Silicon Valley Batch 003","crunchbase_url":"https://www.crunchbase.com/organization/boatbound"}
{"_id":{"$oid":"58799d72734d1d50c5141296"},"name":"Shoppable","address":"139 Fulton Street","city":"New York","state":"New York","zip":"10038","country":"United States","lat":40.710462,"lng":-74.007767,"icon":"shoppable.png","url":"http://shoppable.com","batch":"Silicon Valley Batch 003","crunchbase_url":"https://www.crunchbase.com/organization/72lux"}
{"_id":{"$oid":"58799dbb734d1d50c514129a"},"name":"Facturama","icon":"facturama.png","url":"http://facturama.mx","batch":"Silicon Valley Batch 003","crunchbase_url":"https://www.crunchbase.com/organization/facturama"}
{"_id":{"$oid":"58799e40734d1d50c51412a0"},"name":"Talkdesk","address":"535 Mission Street, 12th Floor","city":"San Francisco","state":"California","zip":"94105","country":"United States","lat":37.78889,"lng":-122.398104,"icon":"talkdesk.png","url":"http://talkdesk.com","batch":"Silicon Valley Batch 003","crunchbase_url":"https://www.crunchbase.com/organization/talkdesk"}
{"_id":{"$oid":"58799ec4734d1d50c51412bf"},"name":"Safe Shepherd","address":"2180 Folsom Street","city":"San Francisco","state":"California","zip":"94110","country":"United States","lat":37.762503,"lng":-122.415442,"icon":"safeshepherd.png","url":"http://safeshepherd.com","batch":"Silicon Valley Batch 003","crunchbase_url":"https://www.crunchbase.com/organization/safe-shepherd"}
{"_id":{"$oid":"58799f22734d1d50c51412c1"},"name":"Farmeron","address":"Stjepana Radića 16","city":"Osijek","state":null,"zip":"31000","country":"Croatia","lat":45.5586682,"lng":18.680217,"icon":"farmeron.png","url":"http://farmeron.com","batch":"Silicon Valley Batch 003","crunchbase_url":"https://www.crunchbase.com/organization/farmeron"}
{"_id":{"$oid":"5879a004734d1d50c51412e5"},"name":"Cadee","icon":"cadee.png","url":"http://cadee.co","batch":"Silicon Valley Batch 003","crunchbase_url":"https://www.crunchbase.com/organization/cadee"}
{"_id":{"$oid":"5879a061734d1d50c51412ed"},"name":"Contactually","icon":"contactually.png","url":"http://contactually.com","batch":"Silicon Valley Batch 003","crunchbase_url":"https://www.crunchbase.com/organization/contactually"}
{"_id":{"$oid":"5879a0b6734d1d50c51412f4"},"name":"import2","address":"300 Pioneer Way, Suite D","city":"Mountain View","state":"California","zip":"94041","country":"United States","lat":37.387211,"lng":-122.068019,"icon":"import2.png","url":"http://import2.com","batch":"Silicon Valley Batch 003","crunchbase_url":"https://www.crunchbase.com/organization/import2"}
{"_id":{"$oid":"5879a114734d1d50c5141307"},"name":"FlyData","address":"460 S. California Ave, Suite B2","city":"Palo Alto","state":"California","zip":"94306","country":"United States","lat":37.425851,"lng":-122.145689,"icon":"flydata.png","url":"http://flydata.com","batch":"Silicon Valley Batch 003","crunchbase_url":"https://www.crunchbase.com/organization/flydata"}
{"_id":{"$oid":"5879a179734d1d50c5141313"},"name":"Pay By Group","address":"880 Harrison Street","city":"San Francisco","state":"California","zip":"94107","country":"United States","lat":37.779655,"lng":-122.401678,"icon":"paybygroup.png","url":"http://paybygroup.com","batch":"Silicon Valley Batch 003","crunchbase_url":"https://www.crunchbase.com/organization/paybygroup"}
{"_id":{"$oid":"5879a1b0734d1d50c5141321"},"name":"GoVoluntr","icon":"govoluntr.png","url":"http://govoluntr.com","batch":"Silicon Valley Batch 003","crunchbase_url":"https://www.crunchbase.com/organization/govoluntr"}
{"_id":{"$oid":"5879a1de734d1d50c5141324"},"name":"Fitocracy","icon":"fitocracy.png","url":"http://fitocracy.com","batch":"Silicon Valley Batch 003","crunchbase_url":"https://www.crunchbase.com/organization/fitocracy"}
{"_id":{"$oid":"5879a20e734d1d50c514132a"},"name":"WeddingLovely","icon":"weddinglovely.png","url":"http://weddinglovely.com","batch":"Silicon Valley Batch 003","crunchbase_url":"https://www.crunchbase.com/organization/weddinglovely"}
{"_id":{"$oid":"5879a26c734d1d50c514132c"},"name":"CoContest","icon":"cocontest.png","url":"http://cocontest.com","batch":"San Francisco Batch 013","crunchbase_url":"https://www.crunchbase.com/organization/cocontest"}
{"_id":{"$oid":"5879a3c8734d1d50c514133e"},"name":"Mitoo","address":"415 Jackson St, Suite B","city":"San Francisco","state":"California","zip":"93111","country":"United States","lat":37.796319,"lng":-122.402347,"icon":"mitoo.png","url":"http://mitoo.co","batch":"Silicon Valley Batch 004","crunchbase_url":"https://www.crunchbase.com/organization/bluefields"}
{"_id":{"$oid":"5879a402734d1d50c5141361"},"name":"Teliportme","icon":"teliportme.png","url":"http://teliportme.com","batch":"Silicon Valley Batch 004","crunchbase_url":"https://www.crunchbase.com/organization/teliportme"}
{"_id":{"$oid":"5879a44c734d1d50c5141369"},"name":"Tie Society","icon":"tiesociety.png","url":"http://tiesociety.com","batch":"Silicon Valley Batch 004","crunchbase_url":"https://www.crunchbase.com/organization/tie-society"}
{"_id":{"$oid":"5879a4b5734d1d50c514136f"},"name":"Markerly","address":"111 Independence Dr","city":"Menlo Park","state":"California","zip":"94025","country":"United States","lat":37.484339,"lng":-122.178898,"icon":"markerly.png","url":"http://markerly.com","batch":"Silicon Valley Batch 004","crunchbase_url":"https://www.crunchbase.com/organization/markerly"}
{"_id":{"$oid":"5879a50d734d1d50c5141370"},"name":"ActivityHero","address":"440 N Wolfe Road","city":"Sunnyvale","state":"California","zip":"94085","country":"United States","lat":37.38392,"lng":-122.012844,"icon":"activityhero.png","url":"http://activityhero.com","batch":"Silicon Valley Batch 004","crunchbase_url":"https://www.crunchbase.com/organization/activityhero"}
{"_id":{"$oid":"5879a5c7734d1d50c5141378"},"name":"TradeBriefs","address":"309 Towne Center 1, Andheri Kurla Road","city":"East Mumbai","state":"Maharashtra","zip":"400059","country":"India","lat":19.1069,"lng":72.883234,"icon":"tradebriefs.png","url":"http://tradebriefs.com","batch":"Silicon Valley Batch 004","crunchbase_url":"https://www.crunchbase.com/organization/tradebriefs"}
{"_id":{"$oid":"5879a648734d1d50c5141391"},"name":"Toshl Inc.","address":"795 Folsom St, 1st Floor","city":"San Francisco","state":"California","zip":"94107","country":"United States","lat":37.782159,"lng":-122.400484,"icon":"toshl.png","url":"http://toshl.com","batch":"Silicon Valley Batch 004","crunchbase_url":"https://www.crunchbase.com/organization/toshl-inc"}
{"_id":{"$oid":"5879a67e734d1d50c5141393"},"name":"Chalkable","icon":"chalkable.png","url":"http://chalkable.com","batch":"Silicon Valley Batch 004","crunchbase_url":"https://www.crunchbase.com/organization/chalkable"}
{"_id":{"$oid":"5879a70c734d1d50c5141394"},"name":"Happy Inspector (now HappyCo)","address":"1000 Van Ness Ave","city":"San Francisco","state":"California","zip":"94109","country":"United States","lat":37.785128,"lng":-122.420433,"icon":"happyinspector.png","url":"http://happyco.com","batch":"Silicon Valley Batch 004","crunchbase_url":"https://www.crunchbase.com/organization/happy-inspector"}
{"_id":{"$oid":"5879a769734d1d50c51413a9"},"name":"Bombfell","address":"575 8th Ave, Suite 900","city":"New York","state":"New York","zip":"10018","country":"United States","lat":40.755052,"lng":-73.991831,"icon":"bombfell.png","url":"http://bombfell.com","batch":"Silicon Valley Batch 004","crunchbase_url":"https://www.crunchbase.com/organization/bombfell"}
{"_id":{"$oid":"5879a7a1734d1d50c51413c0"},"name":"Twitmusic","icon":"twitmusic.png","url":"http://twitmusic.com","batch":"Silicon Valley Batch 004","crunchbase_url":"https://www.crunchbase.com/organization/twitmusic"}
{"_id":{"$oid":"5879a7f3734d1d50c51413c6"},"name":"Timbuktu","icon":"timbuktu.png","url":"http://timbuktu.me","batch":"Silicon Valley Batch 004","crunchbase_url":"https://www.crunchbase.com/organization/timbuktu-labs"}
{"_id":{"$oid":"587ad1cc734d1d2fcac2f6d5"},"name":"App.io","address":"1 Bluxome St, Suite 205","city":"San Francisco","state":"California","zip":"94107","country":"United States","lat":37.777423,"lng":-122.395884,"icon":"appio.png","url":"http://app.io","batch":"Silicon Valley Batch 005","crunchbase_url":"https://www.crunchbase.com/organization/app-io"}
{"_id":{"$oid":"587ad2a1734d1d2fcac2f6eb"},"name":"Instamojo","address":"7th Cross Road, 4th Floor","city":"Bangalore","state":"Karnataka ","zip":"560034","country":"India","lat":13.025064,"lng":77.586792,"icon":"instamojo.png","url":"http://instamojo.com","batch":"Silicon Valley Batch 005","crunchbase_url":"https://www.crunchbase.com/organization/instamojo"}
{"_id":{"$oid":"587ad385734d1d2fcac2f716"},"name":"Waygo","icon":"waygo.png","url":"http://waygoapp.com","batch":"Silicon Valley Batch 005","crunchbase_url":"https://www.crunchbase.com/organization/waygo-visual-translator"}
{"_id":{"$oid":"587ad40c734d1d2fcac2f71c"},"name":"Privy","address":"745 Atlantic Ave, 8th Floor","city":"Boston","state":"Massachusetts","zip":"02111","country":"United States","lat":42.350304,"lng":-71.057101,"icon":"privy.png","url":"http://privy.com","batch":"Silicon Valley Batch 005","crunchbase_url":"https://www.crunchbase.com/organization/privy-2"}
{"_id":{"$oid":"587ad4a8734d1d2fcac2f740"},"name":"TouristEye","address":"Gaztambide 20, 1A","city":"Madrid","state":"Madrid","zip":"28015","country":"Spain","lat":40.43329,"lng":-3.715531,"icon":"touristeye.png","url":"http://touristeye.com","batch":"Silicon Valley Batch 005","crunchbase_url":"https://www.crunchbase.com/organization/tourist-eye"}
{"_id":{"$oid":"587ad567734d1d2fcac2f758"},"name":"Tealet","address":"6131 Puapake St, Unit 92","city":"Honolulu ","state":"Hawaii","zip":"96707","country":"United States","lat":21.365922,"lng":-158.093566,"icon":"tealet.png","url":"http://tealet.com","batch":"Silicon Valley Batch 005","crunchbase_url":"https://www.crunchbase.com/organization/tealet"}
{"_id":{"$oid":"587ad603734d1d2fcac2f77f"},"name":"everbill","icon":"everbill.png","url":"http://everbill.com","batch":"Silicon Valley Batch 005","crunchbase_url":"https://www.crunchbase.com/organization/everbill"}
{"_id":{"$oid":"587ad6aa734d1d2fcac2f7a1"},"name":"Winc","icon":"winc.png","url":"http://winc.com","batch":"Silicon Valley Batch 005","crunchbase_url":"https://www.crunchbase.com/organization/clubw-com"}
{"_id":{"$oid":"587ad720734d1d2fcac2f7a4"},"name":"BabyList","icon":"babylist.png","url":"http://babyli.st","batch":"Silicon Valley Batch 005","crunchbase_url":"https://www.crunchbase.com/organization/babylist"}
{"_id":{"$oid":"587adb45734d1d2fcac2f83d"},"name":"Curious Hat","address":"120 W 40th Avenue","city":"San Mateo","state":"California","zip":"94403","country":"United States","lat":37.530422,"lng":-122.295153,"icon":"curioushat.png","url":"http://curioushat.com","batch":"Silicon Valley Batch 005","crunchbase_url":"https://www.crunchbase.com/organization/curious-hat"}
{"_id":{"$oid":"587adbbb734d1d2fcac2f84e"},"name":"SupplyHog","address":"2515 E 43rd St, Suite B","city":"Chattanooga","state":"Tennessee","zip":"37407","country":"United States","lat":34.99469,"lng":-85.287162,"icon":"supplyhog.png","url":"http://supplyhog.com","batch":"Silicon Valley Batch 005","crunchbase_url":"https://www.crunchbase.com/organization/supplyhog"}
{"_id":{"$oid":"587adbf2734d1d2fcac2f855"},"name":"Cuponomia","icon":"cuponomia.png","url":"http://cuponomia.com.br","batch":"Silicon Valley Batch 005","crunchbase_url":"https://www.crunchbase.com/organization/cuponomia"}
{"_id":{"$oid":"587adc27734d1d2fcac2f875"},"name":"Wideo","icon":"wideo.png","url":"http://wideo.co","batch":"Silicon Valley Batch 005","crunchbase_url":"https://www.crunchbase.com/organization/wideo"}
{"_id":{"$oid":"587adc62734d1d2fcac2f8da"},"name":"WalletKit","icon":"walletkit.png","url":"http://walletkit.com","batch":"Silicon Valley Batch 005","crunchbase_url":"https://www.crunchbase.com/organization/walletkit"}
{"_id":{"$oid":"587adcde734d1d2fcac2f8ef"},"name":"Pick1","address":"543 Howard St, 5th Floor","city":"San Francisco","state":"California","zip":"94109","country":"United States","lat":37.787573,"lng":-122.396573,"icon":"pick1.png","url":"http://pick1.com","batch":"Silicon Valley Batch 005","crunchbase_url":"https://www.crunchbase.com/organization/pick1"}
{"_id":{"$oid":"587add0b734d1d2fcac2f8f4"},"name":"Chewse","icon":"chewse.png","url":"http://chewse.com","batch":"Silicon Valley Batch 005","crunchbase_url":"https://www.crunchbase.com/organization/chewse"}
{"_id":{"$oid":"587add62734d1d2fcac2f915"},"name":"Dealflicks","address":"1355 Market St, Unit #488","city":"San Francisco","state":"California","zip":"94102","country":"United States","lat":37.77679,"lng":-122.416405,"icon":"dealflicks.png","url":"http://dealflicks.com","batch":"Silicon Valley Batch 005","crunchbase_url":"https://www.crunchbase.com/organization/dealflicks"}
{"_id":{"$oid":"587addbc734d1d2fcac2f91d"},"name":"CompStak","address":"36 Cooper Square, 6th Floor","city":"New York","state":"New York","zip":"10003","country":"United States","lat":40.728329,"lng":-73.991479,"icon":"compstak.png","url":"http://compstak.com","batch":"Silicon Valley Batch 005","crunchbase_url":"https://www.crunchbase.com/organization/compstak"}
{"_id":{"$oid":"587addf3734d1d2fcac2f922"},"name":"Geekatoo","icon":"geekatoo.png","url":"http://geekatoo.com","batch":"Silicon Valley Batch 005","crunchbase_url":"https://www.crunchbase.com/organization/geekatoo"}
{"_id":{"$oid":"587adf5b734d1d2fcac2f94d"},"name":"WHILL","address":"285 Old County Road, Unit #6","city":"San Carlos","state":"California","zip":"94070","country":"United States","lat":37.513998,"lng":-122.266228,"icon":"whill.png","url":"http://whill.us","batch":"Silicon Valley Batch 006","crunchbase_url":"https://www.crunchbase.com/organization/whill"}
{"_id":{"$oid":"587adf8f734d1d2fcac2f952"},"name":"VideoSelfie (formerly Unda)","icon":"videoselfie.png","url":"http://videoselfie.co","batch":"Silicon Valley Batch 006","crunchbase_url":"https://www.crunchbase.com/organization/unda"}
{"_id":{"$oid":"587ae034734d1d2fcac2f96d"},"name":"Tushky","address":"11/43, Yeshwant Nagar, SV Road","city":"Goregaon","state":"West Mumbai","zip":"400062","country":"India","lat":19.158123,"lng":72.84613,"icon":"tushky.png","url":"http://tushky.com","batch":"Silicon Valley Batch 006","crunchbase_url":"https://www.crunchbase.com/organization/tushky"}
{"_id":{"$oid":"587ae0ce734d1d2fcac2f98a"},"name":"TRDATA","address":"1 Canada Square, 39th Floor","city":"Canary Wharf","state":"London","zip":"E 14 5AB","country":"United Kingdom","lat":51.504949,"lng":-0.019501,"icon":"trdata.png","url":"http://trdata.com","batch":"Silicon Valley Batch 006","crunchbase_url":"https://www.crunchbase.com/organization/trdata"}
{"_id":{"$oid":"587ae10b734d1d2fcac2f99a"},"name":"Tamatem","icon":"tamatem.png","url":"http://tamatem.co","batch":"Silicon Valley Batch 006","crunchbase_url":"https://www.crunchbase.com/organization/tamatem-inc"}
{"_id":{"$oid":"587ae222734d1d2fcac2f9a6"},"name":"Activate by Bloglovin (formerly Sverve)","address":"116 West Houston St, 5th Floor","city":"New York","state":"New York","zip":"10012","country":"United States","lat":40.727767,"lng":-74.000867,"icon":"activate.png","url":"http://activate.bloglovin.com","batch":"Silicon Valley Batch 006","crunchbase_url":"https://www.crunchbase.com/organization/sverve"}
{"_id":{"$oid":"587ae24d734d1d2fcac2f9b6"},"name":"TasteSpace","icon":"tastespace.png","url":"http://tastespace.com","batch":"Silicon Valley Batch 006","crunchbase_url":"https://www.crunchbase.com/organization/tastespace"}
{"_id":{"$oid":"587ae295734d1d2fcac2f9bf"},"name":"Seat 14A","icon":"seat14a.png","url":"http://seat14a.com","batch":"Silicon Valley Batch 006","crunchbase_url":"https://www.crunchbase.com/organization/seat-14a"}
{"_id":{"$oid":"587ae38d734d1d2fcac2f9f3"},"name":"Reesio","address":"5214F Diamond Heights Blvd., Unit #217","city":"San Francisco","state":"California","zip":"94131","country":"United States","lat":37.743714,"lng":-122.439954,"icon":"reesio.png","url":"http://reesio.com","batch":"Silicon Valley Batch 006","crunchbase_url":"https://www.crunchbase.com/organization/reesio"}
{"_id":{"$oid":"587ae3d0734d1d2fcac2fa00"},"name":"School Admissions","icon":"schooladmissions.png","url":"http://schooladmissions.in","batch":"Silicon Valley Batch 006","crunchbase_url":"https://www.crunchbase.com/organization/school-admissions"}
{"_id":{"$oid":"587ae411734d1d2fcac2fa06"},"name":"PriceBaba","icon":"pricebaba.png","url":"http://pricebaba.com","batch":"Silicon Valley Batch 006","crunchbase_url":"https://www.crunchbase.com/organization/pricebaba"}
{"_id":{"$oid":"587ae47d734d1d2fcac2fa07"},"name":"POPAPP","icon":"popapp.png","url":"http://popapp.in","batch":"Silicon Valley Batch 006","crunchbase_url":"https://www.crunchbase.com/organization/popapp"}
{"_id":{"$oid":"587ae4cb734d1d2fcac2fa0a"},"name":"Pinmypet","icon":"pinmypet.png","url":"http://pinmypet.co","batch":"Silicon Valley Batch 006","crunchbase_url":"https://www.crunchbase.com/organization/pinmypet"}
{"_id":{"$oid":"587ae5da734d1d2fcac2fa17"},"name":"NativeAD","address":"Calle de Alberto Aguilera 38","city":"Madrid","state":"Madrid","zip":"28015","country":"Spain","lat":40.430342,"lng":-3.711676,"icon":"nativead.png","url":"http://native.ad","batch":"Silicon Valley Batch 006","crunchbase_url":"https://www.crunchbase.com/organization/nativead"}
{"_id":{"$oid":"587ae69d734d1d2fcac2fa40"},"name":"BoxC","address":"21900 Burbank Blvd., Suite 3077","city":"Woodland Hills","state":"California","zip":"91367","country":"United States","lat":34.171431,"lng":-118.604324,"icon":"boxc.png","url":"http://boxc.com","batch":"Silicon Valley Batch 006","crunchbase_url":"https://www.crunchbase.com/organization/boxc"}
{"_id":{"$oid":"587ae748734d1d2fcac2fa4e"},"name":"Floqq","address":"Avenida de Castilla 33","city":"San Fernando de Henares","state":"Madrid","zip":"28830","country":"Spain","lat":40.453608,"lng":-3.49172,"icon":"floqq.png","url":"http://floqq.com","batch":"Silicon Valley Batch 006","crunchbase_url":"https://www.crunchbase.com/organization/floqq"}
{"_id":{"$oid":"587ae783734d1d2fcac2fa50"},"name":"GreenGar","icon":"greengar.png","url":"http://greengar.com","batch":"Silicon Valley Batch 006","crunchbase_url":"https://www.crunchbase.com/organization/greengar-studios"}
{"_id":{"$oid":"587c26be734d1d5b7d455ed2"},"name":"InstaGIS","icon":"instagis.png","url":"http://instagis.com","batch":"Silicon Valley Batch 006","crunchbase_url":"https://www.crunchbase.com/organization/instagis"}
{"_id":{"$oid":"587c2706734d1d5b7d455ef0"},"name":"Mayvenn","icon":"mayvenn.png","url":"http://mayvenn.com","batch":"Silicon Valley Batch 006","crunchbase_url":"https://www.crunchbase.com/organization/mayvenn"}
{"_id":{"$oid":"587c2816734d1d5b7d455f38"},"name":"Koemei","address":"225 Bush Street","city":"San Francisco","state":"California","zip":"94104","country":"United States","lat":37.790882,"lng":-122.401552,"icon":"koemei.png","url":"http://koemei.com","batch":"Silicon Valley Batch 006","crunchbase_url":"https://www.crunchbase.com/organization/koemei"}
{"_id":{"$oid":"587c28af734d1d5b7d455f69"},"name":"KiteReaders","address":"261 Woodhams Rd.","city":"Santa Clara","state":"California","zip":"95051","country":"United States","lat":37.327435,"lng":-121.981223,"icon":"kitereaders.png","url":"http://kitereaders.com","batch":"Silicon Valley Batch 006","crunchbase_url":"https://www.crunchbase.com/organization/kitereaders"}
{"_id":{"$oid":"587c2933734d1d5b7d455fe6"},"name":"Feast","icon":"feast.png","url":"http://letsfeast.com","batch":"Silicon Valley Batch 006","crunchbase_url":"https://www.crunchbase.com/organization/feast"}
{"_id":{"$oid":"587c298c734d1d5b7d456022"},"name":"Flyer.io","icon":"flyerio.png","url":"http://flyer.io","batch":"Silicon Valley Batch 006","crunchbase_url":"https://www.crunchbase.com/organization/flyer-io"}
{"_id":{"$oid":"587c29e0734d1d5b7d456035"},"name":"Dropifi","icon":"dropifi.png","url":"http://dropifi.com","batch":"Silicon Valley Batch 006","crunchbase_url":"https://www.crunchbase.com/organization/dropifi"}
{"_id":{"$oid":"587c2a66734d1d5b7d45604c"},"name":"Dakwak","address":"575 S Regnstorff Ave., Suite 125","city":"Mountain View","state":"California","zip":"94040","country":"United States","lat":37.397316,"lng":-122.099517,"icon":"dakwak.png","url":"http://dakwak.com","batch":"Silicon Valley Batch 006","crunchbase_url":"https://www.crunchbase.com/organization/dakwak"}
{"_id":{"$oid":"587c2b0a734d1d5b7d456067"},"name":"Credii","icon":"credii.png","url":"http://credii.com","batch":"Silicon Valley Batch 006","crunchbase_url":"https://www.crunchbase.com/organization/credii"}
{"_id":{"$oid":"587c2b73734d1d5b7d456079"},"name":"AppSocially","address":"1381B 9th Ave","city":"San Francisco","state":"California","zip":"94122","country":"United States","lat":37.762517,"lng":-122.466449,"icon":"appsocially.png","url":"http://appsocial.ly","batch":"Silicon Valley Batch 006","crunchbase_url":"https://www.crunchbase.com/organization/appsocially"}
{"_id":{"$oid":"587c2ba8734d1d5b7d456089"},"name":"Binpress","icon":"binpress.png","url":"http://binpress.com","batch":"Silicon Valley Batch 006","crunchbase_url":"https://www.crunchbase.com/organization/binpress"}
{"_id":{"$oid":"587c2c21734d1d5b7d4560ba"},"name":"PlateJoy","address":"1 Cambridge Center, 5th Floor","city":"Cambridge","state":"Massachusetts","zip":"02142","country":"United States","lat":42.362585,"lng":-71.08535,"icon":"platejoy.png","url":"http://platejoy.com","batch":"Silicon Valley Batch 006","crunchbase_url":"https://www.crunchbase.com/organization/platejoy"}
{"_id":{"$oid":"587c2cf5734d1d5b7d4560f4"},"name":"RealtyShares","address":"501 2nd St, Suite 700","city":"San Francisco","state":"California","zip":"94107","country":"United States","lat":37.783181,"lng":-122.392966,"icon":"realtyshares.png","url":"http://realtyshares.com","batch":"Silicon Valley Batch 007","crunchbase_url":"https://www.crunchbase.com/organization/realtyshares"}
{"_id":{"$oid":"587c2d26734d1d5b7d45612d"},"name":"AcceptOn","icon":"accepton.png","url":"http://accepton.com","batch":"Silicon Valley Batch 007","crunchbase_url":"https://www.crunchbase.com/organization/accepton"}
{"_id":{"$oid":"587c2d77734d1d5b7d456143"},"name":"uBiome","icon":"ubiome.png","url":"http://ubiome.com","batch":"Silicon Valley Batch 007","crunchbase_url":"https://www.crunchbase.com/organization/ubiome"}
{"_id":{"$oid":"587c2e06734d1d5b7d456165"},"name":"WePlann","address":"6387 Camp Bowie Blvd., Suite B","city":"Fort Worth","state":"Texas","zip":"76116","country":"United States","lat":32.725509,"lng":-97.421808,"icon":"weplann.png","url":"http://weplann.com","batch":"Silicon Valley Batch 007","crunchbase_url":"https://www.crunchbase.com/organization/weplann"}
{"_id":{"$oid":"587c2e69734d1d5b7d456188"},"name":"Sidelines","address":"133 Kearny St, Suite 203","city":"San Francisco","state":"California","zip":"94108","country":"United States","lat":37.789245,"lng":-122.404035,"icon":"sidelines.png","url":"http://sidelinesapp.com","batch":"Silicon Valley Batch 007","crunchbase_url":"https://www.crunchbase.com/organization/sidelines"}
{"_id":{"$oid":"587c2ea7734d1d5b7d4561a7"},"name":"LaunchTrack","icon":"launchtrack.png","url":"http://launchtrack.com","batch":"Silicon Valley Batch 007","crunchbase_url":"https://www.crunchbase.com/organization/launchtrack"}
{"_id":{"$oid":"587c2ed7734d1d5b7d4561b3"},"name":"MailLift","icon":"maillift.png","url":"http://maillift.com","batch":"Silicon Valley Batch 007","crunchbase_url":"https://www.crunchbase.com/organization/maillift"}
{"_id":{"$oid":"587c2f14734d1d5b7d4561ba"},"name":"3Desk","icon":"3desk.png","url":"http://3desk.com","batch":"Silicon Valley Batch 007","crunchbase_url":"https://www.crunchbase.com/organization/3desk-2"}
{"_id":{"$oid":"587c2f46734d1d5b7d4561c2"},"name":"Shopseen","icon":"shopseen.png","url":"http://shopseen.com","batch":"Silicon Valley Batch 007","crunchbase_url":"https://www.crunchbase.com/organization/shopseen"}
{"_id":{"$oid":"587c3039734d1d5b7d45620f"},"name":"Sales Beach","icon":"salesbeach.png","url":"http://salesbeach.com","batch":"Silicon Valley Batch 007","crunchbase_url":"https://www.crunchbase.com/organization/sales-beach"}
{"_id":{"$oid":"587c30bc734d1d5b7d45622a"},"name":"SilverPush","address":"131 Sector 44, 2nd Floor","city":"Gurgaon","state":"Haryana","zip":"122002","country":"India","lat":28.448479,"lng":77.075873,"icon":"silverpush.png","url":"http://silverpush.com","batch":"Silicon Valley Batch 007","crunchbase_url":"https://www.crunchbase.com/organization/silverpush"}
{"_id":{"$oid":"587c3115734d1d5b7d45625a"},"name":"Cityblis","address":"440 N Wolfe Rd","city":"Sunnyvale","state":"California","zip":"94085","country":"United States","lat":37.38392,"lng":-122.012844,"icon":"cityblis.png","url":"http://cityblis.com","batch":"Silicon Valley Batch 007","crunchbase_url":"https://www.crunchbase.com/organization/cityblis"}
{"_id":{"$oid":"587c31e1734d1d5b7d45626e"},"name":"Carreira Beauty","address":"Rua Casa do Ator, 919","city":"Sao Paolo","state":null,"zip":null,"country":"Brazil","lat":-23.597732,"lng":-46.682186,"icon":"carreirabeauty.png","url":"http://carreirabeauty.com","batch":"Silicon Valley Batch 007","crunchbase_url":"https://www.crunchbase.com/organization/carreira-beauty"}
{"_id":{"$oid":"587c326a734d1d5b7d456279"},"name":"Builk","address":"71 Sap Road","city":"Bangrak","state":"Bangkok","zip":"10500","country":"Thailand","lat":13.730628,"lng":100.527597,"icon":"builk.png","url":"http://builk.com","batch":"Silicon Valley Batch 007","crunchbase_url":"https://www.crunchbase.com/organization/builk"}
{"_id":{"$oid":"587c3328734d1d5b7d4562c1"},"name":"BTCjam","icon":"btcjam.png","url":"http://btcjam.com","batch":"Silicon Valley Batch 007","crunchbase_url":"https://www.crunchbase.com/organization/btcjam"}
{"_id":{"$oid":"587c3378734d1d5b7d45632c"},"name":"BuzzStarter","icon":"buzzstarter.png","url":"http://buzzstarter.biz","batch":"Silicon Valley Batch 007","crunchbase_url":"https://www.crunchbase.com/organization/buzzstarter"}
{"_id":{"$oid":"587c33db734d1d5b7d456335"},"name":"3Sourcing","icon":"3sourcing.png","url":"http://3sourcing.com","batch":"Silicon Valley Batch 007","crunchbase_url":"https://www.crunchbase.com/organization/3sourcing"}
{"_id":{"$oid":"587c3431734d1d5b7d45633b"},"name":"BountyHunter","icon":"bountyhunter.png","url":"http://bhuntr.com","batch":"Silicon Valley Batch 007","crunchbase_url":"https://www.crunchbase.com/organization/bountyhunter"}
{"_id":{"$oid":"587c3469734d1d5b7d456347"},"name":"Shopeando","icon":"shopeando.png","url":"http://shopeando.mx","batch":"Silicon Valley Batch 007","crunchbase_url":"https://www.crunchbase.com/organization/shopeando"}
{"_id":{"$oid":"587c353c734d1d5b7d45637b"},"name":"AdEspresso","address":"Via Ruggero Boscovich, 14","city":"Milan","state":"Milan","zip":"20124","country":"Italy","lat":45.482438,"lng":9.202117,"icon":"adespresso.png","url":"http://adespresso.com","batch":"Silicon Valley Batch 007","crunchbase_url":"https://www.crunchbase.com/organization/adespresso"}
{"_id":{"$oid":"587c361b734d1d5b7d4563a1"},"name":"EquityZen","address":"10 West 18th Street, 7th Floor","city":"New York","state":"New York","zip":"10011","country":"United States","lat":40.738742,"lng":-73.992928,"icon":"equityzen.png","url":"http://equityzen.com","batch":"Silicon Valley Batch 007","crunchbase_url":"https://www.crunchbase.com/organization/equityzen-inc"}
{"_id":{"$oid":"587c36b0734d1d5b7d4563bb"},"name":"Populr.me","address":"1312 5th Ave.","city":"Nashville","state":"Tennessee","zip":"37208","country":"United States","lat":36.177562,"lng":-86.789098,"icon":"populrme.png","url":"http://populr.me","batch":"Silicon Valley Batch 007","crunchbase_url":"https://www.crunchbase.com/organization/populr-me"}
{"_id":{"$oid":"587c36ed734d1d5b7d4563c5"},"name":"Admission Table","icon":"admissiontable.png","url":"http://admissiontable.com","batch":"Silicon Valley Batch 007","crunchbase_url":"https://www.crunchbase.com/organization/admission-table"}
{"_id":{"$oid":"587c3769734d1d5b7d4563cf"},"name":"Popbasic","icon":"popbasic.png","url":"http://popbasic.com","batch":"Silicon Valley Batch 007","crunchbase_url":"https://www.crunchbase.com/organization/popbasic"}
{"_id":{"$oid":"587c37c9734d1d5b7d4563f7"},"name":"OLSET","address":"1 Bluxome Street","city":"San Francisco","state":"California","zip":"94105","country":"United States","lat":37.777423,"lng":-122.395884,"icon":"olset.png","url":"http://olset.com","batch":"Silicon Valley Batch 007","crunchbase_url":"https://www.crunchbase.com/organization/olset"}
{"_id":{"$oid":"587c386e734d1d5b7d456432"},"name":"Partender","address":"543 Howard St., 5th Floor","city":"San Francisco","state":"California","zip":"94105","country":"United States","lat":37.787573,"lng":-122.396573,"icon":"partender.png","url":"http://partender.com","batch":"Silicon Valley Batch 007","crunchbase_url":"https://www.crunchbase.com/organization/partender"}
{"_id":{"$oid":"587c393f734d1d5b7d456520"},"name":"Monetsu","icon":"monetsu.png","url":"http://monetsu.com","batch":"San Francisco Batch 008","crunchbase_url":"https://www.crunchbase.com/organization/monetsu"}
{"_id":{"$oid":"587c3999734d1d5b7d45652d"},"name":"Smith","icon":"smith.png","url":"http://gosmith.com","batch":"San Francisco Batch 008","crunchbase_url":"https://www.crunchbase.com/organization/friend-trusted"}
{"_id":{"$oid":"587c39c9734d1d5b7d45656d"},"name":"Guidekick","icon":"guidekick.png","url":"http://guidekick.co","batch":"San Francisco Batch 008","crunchbase_url":"https://www.crunchbase.com/organization/guidekick"}
{"_id":{"$oid":"587c3a23734d1d5b7d456589"},"name":"Whale Path","address":"180 Sansome Street, 4th Floor","city":"San Francisco","state":"California","zip":"94104","country":"United States","lat":37.791917,"lng":-122.400662,"icon":"whalepath.png","url":"http://whalepath.com","batch":"San Francisco Batch 008","crunchbase_url":"https://www.crunchbase.com/organization/whale-path"}
{"_id":{"$oid":"587c3a81734d1d5b7d456595"},"name":"Holidog","address":"54 Rue de Paradis","city":"Paris","state":null,"zip":"95014","country":"France","lat":48.875758,"lng":2.349281,"icon":"holidog.png","url":"http://holidog.com","batch":"San Francisco Batch 008","crunchbase_url":"https://www.crunchbase.com/organization/holidog"}
{"_id":{"$oid":"587c3b08734d1d5b7d4565c6"},"name":"FameBit","icon":"famebit.png","url":"http://famebit.com","batch":"San Francisco Batch 008","crunchbase_url":"https://www.crunchbase.com/organization/famebit"}
{"_id":{"$oid":"587c3b3a734d1d5b7d4565cf"},"name":"Unwind Me","icon":"unwindme.png","url":"http://unwind.me","batch":"San Francisco Batch 008","crunchbase_url":"https://www.crunchbase.com/organization/unwind-me"}
{"_id":{"$oid":"587c3bce734d1d5b7d4565e3"},"name":"Remark","address":"301 Chicon St., Suite D","city":"Austin","state":"Texas","zip":"78702","country":"United States","lat":30.258984,"lng":-97.723453,"icon":"remark.png","url":"http://remarkhq.com","batch":"San Francisco Batch 008","crunchbase_url":"https://www.crunchbase.com/organization/remark-hq"}
{"_id":{"$oid":"587c3c03734d1d5b7d4565f0"},"name":"Equipboard","icon":"equipboard.png","url":"http://equipboard.com","batch":"San Francisco Batch 008","crunchbase_url":"https://www.crunchbase.com/organization/equipboard"}
{"_id":{"$oid":"587c3f10734d1d5b7d4569de"},"name":"DOZ","address":"55 rue de la Villette","city":"Lyon","state":null,"zip":"69003","country":"France","lat":45.759457,"lng":4.862131,"icon":"doz.png","url":"http://doz.com","batch":"San Francisco Batch 008","crunchbase_url":"https://www.crunchbase.com/organization/doz"}
{"_id":{"$oid":"587c3f62734d1d5b7d456a0c"},"name":"Doorman","address":"550 10th Street","city":"San Francisco","state":"California","zip":"94103","country":"United States","lat":37.769504,"lng":-122.409114,"icon":"doorman.png","url":"http://doorman.co","batch":"San Francisco Batch 008","crunchbase_url":"https://www.crunchbase.com/organization/doorman"}
{"_id":{"$oid":"587c3fc0734d1d5b7d456a3b"},"name":"CultureAlley","icon":"culturealley.png","url":"http://culturealley.com","batch":"San Francisco Batch 008","crunchbase_url":"https://www.crunchbase.com/organization/culturealley"}
{"_id":{"$oid":"587c402c734d1d5b7d456a5f"},"name":"Primeloop","icon":"primeloop.png","url":"http://primeloop.com","batch":"San Francisco Batch 008","crunchbase_url":"https://www.crunchbase.com/organization/primeloop"}
{"_id":{"$oid":"587c4100734d1d5b7d456a7f"},"name":"BidAway","address":"333 Bush St., Suite 2020","city":"San Francisco","state":"California","zip":"94104","country":"United States","lat":37.7906078,"lng":-122.4052762,"icon":"bidaway.png","url":"http://bidaway.com","batch":"San Francisco Batch 008","crunchbase_url":"https://www.crunchbase.com/organization/bidaway-com"}
{"_id":{"$oid":"587c4343734d1d5b7d456b78"},"name":"Coinalytics","address":"720 University Avenue","city":"Palo Alto","state":"California","zip":"94301","country":"United States","lat":37.450729,"lng":-122.156316,"icon":"coinalytics.png","url":"http://coinalytics.co","batch":"Silicon Valley Batch 009","crunchbase_url":"https://www.crunchbase.com/organization/coinalytics-co"}
{"_id":{"$oid":"587c4401734d1d5b7d456b9d"},"name":"sourceeasy","address":"241 West 37th St., Suite 908","city":"New York","state":"New York","zip":"10018","country":"United States","lat":40.753877,"lng":-73.990921,"icon":"sourceeasy.png","url":"http://sourceeasy.com","batch":"Silicon Valley Batch 009","crunchbase_url":"https://www.crunchbase.com/organization/sourceasy"}
{"_id":{"$oid":"587c4459734d1d5b7d456bb3"},"name":"Vessel","icon":"vessel.png","url":"http://vessel.io","batch":"Silicon Valley Batch 009","crunchbase_url":"https://www.crunchbase.com/organization/vessel"}
{"_id":{"$oid":"587c450c734d1d5b7d456bdf"},"name":"Bohemian Guitars","address":"691 John Wesley Dobbs Ave, Suite C","city":"Atlanta","state":"Georgia","zip":"30312","country":"United States","lat":33.758974,"lng":-84.364768,"icon":"bohemianguitars.png","url":"http://bohemianguitars.com","batch":"Silicon Valley Batch 009","crunchbase_url":"https://www.crunchbase.com/organization/bohemian-guitars"}
{"_id":{"$oid":"587c458e734d1d5b7d456c06"},"name":"Jetbay","address":"77 Van Ness Ave, Suite 101","city":"San Francisco","state":"California","zip":"94102","country":"United States","lat":37.776066,"lng":-122.419852,"icon":"jetbay.png","url":"http://jetbay.com","batch":"Silicon Valley Batch 009","crunchbase_url":"https://www.crunchbase.com/organization/jetbay"}
{"_id":{"$oid":"587c461c734d1d5b7d456c50"},"name":"ArtCorgi","icon":"artcorgi.png","url":"http://artcorgi.com","batch":"Silicon Valley Batch 009","crunchbase_url":"https://www.crunchbase.com/organization/artcorgi"}
{"_id":{"$oid":"587c468d734d1d5b7d456c6b"},"name":"ZootRock","icon":"zootrock.png","url":"http://zootrock.com","batch":"Silicon Valley Batch 009","crunchbase_url":"https://www.crunchbase.com/organization/zootrock"}
{"_id":{"$oid":"587c46c3734d1d5b7d456c6c"},"name":"Thinknum","icon":"thinknum.png","url":"http://thinknum.com","batch":"Silicon Valley Batch 009","crunchbase_url":"https://www.crunchbase.com/organization/thinknum"}
{"_id":{"$oid":"587c4720734d1d5b7d456c77"},"name":"TotSpot","icon":"totspot.png","url":"http://totspot.me","batch":"Silicon Valley Batch 009","crunchbase_url":"https://www.crunchbase.com/organization/totspot-2"}
{"_id":{"$oid":"587c475b734d1d5b7d456c99"},"name":"Teaman \u0026 Company","icon":"teamancompany.png","url":"http://teamanco.com","batch":"Silicon Valley Batch 009","crunchbase_url":"https://www.crunchbase.com/organization/teaman-company"}
{"_id":{"$oid":"587c4796734d1d5b7d456cba"},"name":"Survmetrics","icon":"survmetrics.png","url":"http://survmetrics.com","batch":"Silicon Valley Batch 009","crunchbase_url":"https://www.crunchbase.com/organization/survmetrics"}
{"_id":{"$oid":"587c491b734d1d5b7d456d25"},"name":"Sporthold","icon":"sporthold.png","url":"http://sporthold.com","batch":"Silicon Valley Batch 009","crunchbase_url":"https://www.crunchbase.com/organization/sporthold"}
{"_id":{"$oid":"587c49aa734d1d5b7d456d57"},"name":"Olist","address":"João Gualberto 1740 7º Andar Curitiba","city":"Parana","state":null,"zip":"80030-001","country":"Brazil","lat":-25.413219,"lng":-49.258407,"icon":"olist.png","url":"http://olist.com","batch":"Silicon Valley Batch 009","crunchbase_url":"https://www.crunchbase.com/organization/olist"}
{"_id":{"$oid":"587c4a65734d1d5b7d456d6d"},"name":"Pinshape","address":"128 West Hastings Street, Unit 210","city":"Vancouver","state":"British Columbia","zip":"V6B 1G8","country":"Canada","lat":49.281887,"lng":-123.108188,"icon":"pinshape.png","url":"http://pinshape.com","batch":"Silicon Valley Batch 009","crunchbase_url":"https://www.crunchbase.com/organization/pinshape"}
{"_id":{"$oid":"587c4a9f734d1d5b7d456d7e"},"name":"KangaDo","icon":"kangado.png","url":"http://kangadoapp.com","batch":"Silicon Valley Batch 009","crunchbase_url":"https://www.crunchbase.com/organization/kangado"}
{"_id":{"$oid":"587c4ad5734d1d5b7d456d88"},"name":"GogoCoin","icon":"gogocoin.png","url":"http://gogocoin.com","batch":"Silicon Valley Batch 009","crunchbase_url":"https://www.crunchbase.com/organization/gogocoin"}
{"_id":{"$oid":"587c4b11734d1d5b7d456d9d"},"name":"Angelcam","icon":"angelcam.png","url":"http://angelcam.com","batch":"Silicon Valley Batch 009","crunchbase_url":"https://www.crunchbase.com/organization/angelcam"}
{"_id":{"$oid":"587c4b76734d1d5b7d456db8"},"name":"Pop Up Archive","address":"2355 Broadway, Suite 402","city":"Oakland","state":"California","zip":"94612","country":"United States","lat":37.813267,"lng":-122.266012,"icon":"popuparchive.png","url":"http://popuparchive.com","batch":"Silicon Valley Batch 009","crunchbase_url":"https://www.crunchbase.com/organization/pop-up-archive"}
{"_id":{"$oid":"587c4bf5734d1d5b7d456dd0"},"name":"Bonafide","icon":"bonafide.png","url":"http://bonafide.io","batch":"Silicon Valley Batch 009","crunchbase_url":"https://www.crunchbase.com/organization/bonafide"}
{"_id":{"$oid":"587c4c80734d1d5b7d456df8"},"name":"Stitch","address":"548 Market St, Unit #99953","city":"San Francisco","state":"California","zip":"94104","country":"United States","lat":37.790029,"lng":-122.40084,"icon":"stitch.png","url":"http://stitch.net","batch":"Silicon Valley Batch 009","crunchbase_url":"https://www.crunchbase.com/organization/stitch-2"}
{"_id":{"$oid":"587c4cd5734d1d5b7d456e02"},"name":"AbbeyPost","icon":"abbeypost.png","url":"http://abbeypost.com","batch":"Silicon Valley Batch 009","crunchbase_url":"https://www.crunchbase.com/organization/abbeypost"}
{"_id":{"$oid":"587c4f20734d1d5b7d456eb6"},"name":"Monkimun","icon":"monkimun.png","url":"http://monkimun.com","batch":"San Francisco Batch 010","crunchbase_url":"https://www.crunchbase.com/organization/monkimun"}
{"_id":{"$oid":"587c4fb5734d1d5b7d456efb"},"name":"Neighborly","address":"16 Maiden Lane","city":"San Francisco","state":"California","zip":"94108","country":"United States","lat":37.788503,"lng":-122.404005,"icon":"neighborly.png","url":"http://neighborly.com","batch":"San Francisco Batch 010","crunchbase_url":"https://www.crunchbase.com/organization/neighborly"}
{"_id":{"$oid":"587c505b734d1d5b7d456f32"},"name":"WeDidIt","address":"20 Jay St., Suite #312","city":"Brooklyn","state":"New York","zip":"11201","country":"United States","lat":40.704029,"lng":-73.986712,"icon":"wedidit.png","url":"http://wedid.it","batch":"San Francisco Batch 010","crunchbase_url":"https://www.crunchbase.com/organization/wedidit"}
{"_id":{"$oid":"587c50e5734d1d5b7d456f69"},"name":"Remoov","address":"160 Sylvester Rd South","city":"San Francisco","state":"California","zip":"94080","country":"United States","lat":37.652932,"lng":-122.405186,"icon":"remoov.png","url":"http://remoovit.com","batch":"San Francisco Batch 010","crunchbase_url":"https://www.crunchbase.com/organization/remoov"}
{"_id":{"$oid":"587c517d734d1d5b7d456faf"},"name":"Shakr","address":"397 Seocho-daero, Suite 808","city":"Seoul","state":null,"zip":"95014","country":"South Korea","lat":37.497367,"lng":127.024506,"icon":"shakr.png","url":"http://shakr.com","batch":"San Francisco Batch 010","crunchbase_url":"https://www.crunchbase.com/organization/shakr-media"}
{"_id":{"$oid":"587c5212734d1d5b7d456fdb"},"name":"ProductBio","icon":"productbio.png","url":"http://productbio.com","batch":"San Francisco Batch 010","crunchbase_url":"https://www.crunchbase.com/organization/productbio-2"}
{"_id":{"$oid":"587c5251734d1d5b7d456ff4"},"name":"Vantage Sports","icon":"vantagesports.png","url":"http://vantagesports.com","batch":"San Francisco Batch 010","crunchbase_url":"https://www.crunchbase.com/organization/vantage-sports"}
{"_id":{"$oid":"587c52ec734d1d5b7d45701e"},"name":"Zoomforth","address":"110 Capp St., Suite 200","city":"San Francisco","state":"California","zip":"94110","country":"United States","lat":37.764794,"lng":-122.418817,"icon":"zoomforth.png","url":"http://zoomforth.com","batch":"San Francisco Batch 010","crunchbase_url":"https://www.crunchbase.com/organization/zoomforth"}
{"_id":{"$oid":"587c5404734d1d5b7d457072"},"name":"YogaTrail","address":"100/3 Moo 5, T. Suthep","city":"Chiang Mai","state":null,"zip":"50200","country":"Thailand","lat":18.7414,"lng":98.9503779,"icon":"yogatrail.png","url":"http://yogatrail.com","batch":"San Francisco Batch 010","crunchbase_url":"https://www.crunchbase.com/organization/yogatrail"}
{"_id":{"$oid":"587c54c5734d1d5b7d45709c"},"name":"Whim","address":"180 Capp Street","city":"San Francisco","state":"California","zip":"94110","country":"United States","lat":37.763869,"lng":-122.419088,"icon":"whim.png","url":"http://joinwhim.com","batch":"San Francisco Batch 010","crunchbase_url":"https://www.crunchbase.com/organization/whim-2"}
{"_id":{"$oid":"587c5516734d1d5b7d4570ad"},"name":"UXCam","icon":"uxcam.png","url":"http://uxcam.com","batch":"San Francisco Batch 010","crunchbase_url":"https://www.crunchbase.com/organization/uxcam"}
{"_id":{"$oid":"587d27bf734d1d5b7d45ee45"},"name":"Uplette","address":"10 Dundas St. E., 6th Floor","city":"Toronto","state":"Ontario","zip":"M5B 2G9","country":"Canada","lat":43.65702,"lng":-79.380445,"icon":"uplette.png","url":"http://www.innohub.ca/","batch":"San Francisco Batch 010","crunchbase_url":"https://www.crunchbase.com/organization/uplette"}
{"_id":{"$oid":"587d280c734d1d5b7d45ee6e"},"name":"Uguru.me","icon":"ugurume.png","url":"http://uguru.me","batch":"San Francisco Batch 010","crunchbase_url":"https://www.crunchbase.com/organization/uguru"}
{"_id":{"$oid":"587d28b0734d1d5b7d45eef6"},"name":"TrustCloud","address":"902 Broadway, 4th Floor","city":"New York","state":"New York","zip":"10010","country":"United States","lat":40.73939,"lng":-73.989285,"icon":"trustcloud.png","url":"http://trustcloud.com","batch":"San Francisco Batch 010","crunchbase_url":"https://www.crunchbase.com/organization/trustcloud"}
{"_id":{"$oid":"587d28eb734d1d5b7d45ef4b"},"name":"StudySoup","icon":"studysoup.png","url":"http://studysoup.com","batch":"San Francisco Batch 010","crunchbase_url":"https://www.crunchbase.com/organization/studysoup"}
{"_id":{"$oid":"587d29d4734d1d5b7d45efa5"},"name":"Shopline","address":"535 Jaffe Rd, 12th Floor","city":"Causeway Bay","state":null,"zip":null,"country":"Hong Kong","lat":22.281132,"lng":114.183925,"icon":"shopline.png","url":"http://shoplineapp.com","batch":"San Francisco Batch 010","crunchbase_url":"https://www.crunchbase.com/organization/shopline"}
{"_id":{"$oid":"587d2a9e734d1d5b7d45effe"},"name":"Rover","address":"55 Adelaide Street East, Suite 410","city":"Toronto","state":"Ontario","zip":"M5C 1K6","country":"Canada","lat":43.650678,"lng":-79.375814,"icon":"rover.png","url":"http://rover.io","batch":"San Francisco Batch 010","crunchbase_url":"https://www.crunchbase.com/organization/rover"}
{"_id":{"$oid":"587d2b10734d1d5b7d45f04c"},"name":"Revivn","address":"63 Flushing Ave, Unit 231","city":"Brooklyn","state":"New York","zip":"11205","country":"United States","lat":40.698304,"lng":-73.974297,"icon":"revivn.png","url":"http://revivn.com","batch":"San Francisco Batch 010","crunchbase_url":"https://www.crunchbase.com/organization/revivn"}
{"_id":{"$oid":"587d2be3734d1d5b7d45f0b4"},"name":"Rain","address":"10866 Wilshire Blvd","city":"Los Angeles","state":"California","zip":"90024","country":"United States","lat":34.058852,"lng":-118.442131,"icon":"rain.png","url":"http://rainlocal.com","batch":"San Francisco Batch 010","crunchbase_url":"https://www.crunchbase.com/organization/rain"}
{"_id":{"$oid":"587d2c48734d1d5b7d45f1a7"},"name":"Promolta","address":"44 Tehama St.","city":"San Francisco","state":"California","zip":"94105","country":"United States","lat":37.787601,"lng":-122.396643,"icon":"promolta.png","url":"http://promolta.com","batch":"San Francisco Batch 010","crunchbase_url":"https://www.crunchbase.com/organization/promolta"}
{"_id":{"$oid":"587d2d16734d1d5b7d45f210"},"name":"myTips","icon":"mytips.png","url":"http://mytips.co","batch":"San Francisco Batch 010","crunchbase_url":"https://www.crunchbase.com/organization/mytips"}
{"_id":{"$oid":"587d2dab734d1d5b7d45f287"},"name":"Vizalytics Technology","address":"40 Wall Street, 28th Floor","city":"New York","state":"New York","zip":"10005","country":"United States","lat":40.706955,"lng":-74.00974,"icon":"vizalyticstechnology.png","url":"http://vizalytics.com","batch":"San Francisco Batch 010","crunchbase_url":"https://www.crunchbase.com/organization/vizalytics-technology"}
{"_id":{"$oid":"587d2de4734d1d5b7d45f2ac"},"name":"Lendsquare","icon":"lendsquare.png","url":"http://lendsquare.com","batch":"San Francisco Batch 010","crunchbase_url":"https://www.crunchbase.com/organization/lendsquare"}
{"_id":{"$oid":"587d7486734d1d5b7d461676"},"name":"Gymtrack","address":"441 MacLaren Street, Unit 404","city":"Ottawa","state":"Ontario","zip":"K2A 3N2","country":"Canada","lat":45.414139,"lng":-75.697797,"icon":"gymtrack.png","url":"http://gymtrack.co","batch":"San Francisco Batch 010","crunchbase_url":"https://www.crunchbase.com/organization/gymtrack"}
{"_id":{"$oid":"587d7543734d1d5b7d4616b6"},"name":"Givesurance","address":"21900 Burbank Blvd., Suite 265","city":"Woodland Hills","state":"California","zip":"91367","country":"United States","lat":34.171431,"lng":-118.604324,"icon":"givesurance.png","url":"http://givesurance.org","batch":"San Francisco Batch 010","crunchbase_url":"https://www.crunchbase.com/organization/givesurance"}
{"_id":{"$oid":"587d7594734d1d5b7d4616d1"},"name":"Gallery Alsharq","icon":"galleryalsharq.png","url":"http://galleryalsharq.com","batch":"San Francisco Batch 010","crunchbase_url":"https://www.crunchbase.com/organization/gallery-alsharq"}
{"_id":{"$oid":"587d768f734d1d5b7d4616ef"},"name":"Feesheh","address":"King Hussein Business Park","city":"Amman","state":null,"zip":"11191","country":"Jordan","lat":31.972005,"lng":35.8348508,"icon":"feesheh.png","url":"http://feesheh.com","batch":"San Francisco Batch 010","crunchbase_url":"https://www.crunchbase.com/organization/feesheh"}
{"_id":{"$oid":"587d77b5734d1d5b7d461734"},"name":"Cream","icon":"cream.png","url":"http://cream.nyc","batch":"San Francisco Batch 010","crunchbase_url":"https://www.crunchbase.com/organization/cream-style"}
{"_id":{"$oid":"587d7837734d1d5b7d461765"},"name":"CareLuLu","address":"1 Kaiser Plaza","city":"Oakland","state":"California","zip":"94612","country":"United States","lat":37.809976,"lng":-122.264117,"icon":"carelulu.png","url":"http://carelulu.com","batch":"San Francisco Batch 010","crunchbase_url":"https://www.crunchbase.com/organization/carelulu"}
{"_id":{"$oid":"587d7931734d1d5b7d4617a2"},"name":"strapping","icon":"strapping.png","url":"http://shopstrapping.com","batch":"Silicon Valley Batch 011","crunchbase_url":"https://www.crunchbase.com/organization/strapping"}
{"_id":{"$oid":"587d7add734d1d5b7d46180d"},"name":"eTobb","address":"Cassir Bldg, Sursock St, 4th Floor","city":"Achrafieh","state":"Beirut","zip":null,"country":"Lebanon","lat":33.8933542,"lng":35.5116096,"icon":"etobb.png","url":"http://etobb.com","batch":"Silicon Valley Batch 011","crunchbase_url":"https://www.crunchbase.com/organization/etobb"}
{"_id":{"$oid":"587d7b6d734d1d5b7d461823"},"name":"italist","address":"275 Battery Street, Suite 2600","city":"San Francisco","state":"California","zip":"94111","country":"United States","lat":37.793862,"lng":-122.400455,"icon":"italist.png","url":"http://italist.com","batch":"Silicon Valley Batch 011","crunchbase_url":"https://www.crunchbase.com/organization/italist"}
{"_id":{"$oid":"587d7bfc734d1d5b7d461856"},"name":"CloudAcademy","icon":"cloudacademy.png","url":"http://cloudacademy.com","batch":"Silicon Valley Batch 011","crunchbase_url":"https://www.crunchbase.com/organization/cloudacademy"}
{"_id":{"$oid":"587d7c67734d1d5b7d46186d"},"name":"Socialight","icon":"socialight.png","url":"http://socialight.com","batch":"Silicon Valley Batch 011","crunchbase_url":"https://www.crunchbase.com/organization/socialight"}
{"_id":{"$oid":"587d7d35734d1d5b7d4618b1"},"name":"HeTexted","address":"10 E 21st St, 4th Floor","city":"New York","state":"New York","zip":"10010","country":"United States","lat":40.7398476,"lng":-73.9902068,"icon":"hetexted.png","url":"http://hetexted.com","batch":"Silicon Valley Batch 011","crunchbase_url":"https://www.crunchbase.com/organization/hetexted"}
{"_id":{"$oid":"587d7da4734d1d5b7d4618e8"},"name":"Tappur","icon":"tappur.png","url":"http://drumpants.com","batch":"Silicon Valley Batch 011","crunchbase_url":"https://www.crunchbase.com/organization/tappur"}
{"_id":{"$oid":"587d7e1f734d1d5b7d461966"},"name":"ElWafeyat","icon":"elwafeyat.png","url":"http://elwafeyat.com","batch":"Silicon Valley Batch 011","crunchbase_url":"https://www.crunchbase.com/organization/elwafeyat"}
{"_id":{"$oid":"587d833b734d1d5b7d461a97"},"name":"Catnip","icon":"catnip.png","url":"http://getcatnip.com","batch":"Silicon Valley Batch 011","crunchbase_url":"https://www.crunchbase.com/organization/catnip"}
{"_id":{"$oid":"587d83b6734d1d5b7d461aa6"},"name":"Blinq","icon":"blinq.png","url":"http://blinq.me","batch":"Silicon Valley Batch 011","crunchbase_url":"https://www.crunchbase.com/organization/blinq-4"}
{"_id":{"$oid":"587d8486734d1d5b7d461ad3"},"name":"Plotbox","address":"1069 E Meadow Circle","city":"Palo Alto","state":"California","zip":"94303","country":"United States","lat":37.430296,"lng":-122.108706,"icon":"plotbox.png","url":"http://plotbox.io","batch":"Silicon Valley Batch 011","crunchbase_url":"https://www.crunchbase.com/organization/plotbox"}
{"_id":{"$oid":"587d944c734d1d5b7d461ea2"},"name":"Connected2.me","icon":"connected2me.png","url":"http://connected2.me","batch":"Silicon Valley Batch 011","crunchbase_url":"https://www.crunchbase.com/organization/connected2-me"}
{"_id":{"$oid":"587d94b1734d1d5b7d461eb5"},"name":"Studypool","icon":"studypool.png","url":"http://studypool.com","batch":"Silicon Valley Batch 011","crunchbase_url":"https://www.crunchbase.com/organization/studypool"}
{"_id":{"$oid":"587d95d5734d1d5b7d461ef8"},"name":"Doughbies","icon":"doughbies.png","url":"http://doughbies.com","batch":"Silicon Valley Batch 011","crunchbase_url":"https://www.crunchbase.com/organization/doughbies"}
{"_id":{"$oid":"587d9633734d1d5b7d461f09"},"name":"AppZen","address":"440 N Wolfe Rd","city":"Sunnyvale","state":"California","zip":"94086","country":"United States","lat":37.38392,"lng":-122.012844,"icon":"appzen.png","url":"http://appzen.com","batch":"Silicon Valley Batch 011","crunchbase_url":"https://www.crunchbase.com/organization/appzen"}
{"_id":{"$oid":"587d96af734d1d5b7d461f2c"},"name":"Slidebean","address":"25 Broadway, 9th Floor","city":"New York","state":"New York","zip":"10004","country":"United States","lat":40.705781,"lng":-74.013972,"icon":"slidebean.png","url":"http://slidebean.com","batch":"Silicon Valley Batch 011","crunchbase_url":"https://www.crunchbase.com/organization/slidebean"}
{"_id":{"$oid":"587d96f4734d1d5b7d461f47"},"name":"ProSky","icon":"prosky.png","url":"http://prosky.co","batch":"Silicon Valley Batch 011","crunchbase_url":"https://www.crunchbase.com/organization/prosky"}
{"_id":{"$oid":"587d987c734d1d5b7d461fb8"},"name":"Mountary","icon":"mountary.png","url":"http://mountary.com","batch":"Silicon Valley Batch 011","crunchbase_url":"https://www.crunchbase.com/organization/mountary"}
{"_id":{"$oid":"587d991b734d1d5b7d461fe5"},"name":"CoinPip","address":"71 Ayer Rajah Crescent, Unit #06-11","city":null,"state":null,"zip":"139951","country":"Singapore","lat":1.296742,"lng":103.786664,"icon":"coinpip.png","url":"http://coinpip.com","batch":"Silicon Valley Batch 011","crunchbase_url":"https://www.crunchbase.com/organization/coinpip"}
{"_id":{"$oid":"587d996b734d1d5b7d462001"},"name":"Techpear","icon":"techpear.png","url":"http://techpear.com","batch":"Silicon Valley Batch 011","crunchbase_url":"https://www.crunchbase.com/organization/techpear"}
{"_id":{"$oid":"587d99d1734d1d5b7d46202a"},"name":"VaiVolta","address":"1240 Vila Mariana","city":"Sao Paolo","state":null,"zip":"95014","country":"Brazil","lat":-23.528009,"lng":-46.597216,"icon":"vaivolta.png","url":"http://vaivolta.com.br","batch":"Silicon Valley Batch 011","crunchbase_url":"https://www.crunchbase.com/organization/vaivolta"}
{"_id":{"$oid":"587d9a09734d1d5b7d462035"},"name":"Headout","icon":"headout.png","url":"http://headout.com","batch":"Silicon Valley Batch 011","crunchbase_url":"https://www.crunchbase.com/organization/tourlandish"}
{"_id":{"$oid":"587d9a52734d1d5b7d462046"},"name":"ChouxBox","icon":"chouxbox.png","url":"http://chouxbox.com","batch":"Silicon Valley Batch 011","crunchbase_url":"https://www.crunchbase.com/organization/chouxbox"}
{"_id":{"$oid":"587d9ad0734d1d5b7d462088"},"name":"AstroPrint","icon":"astroprint.png","url":"http://astroprint.com","batch":"Silicon Valley Batch 011","crunchbase_url":"https://www.crunchbase.com/organization/astroprint"}
{"_id":{"$oid":"587d9b3e734d1d5b7d4620a4"},"name":"Cleanify","address":"2 Clarence Place","city":"San Francisco","state":"California","zip":"94107","country":"United States","lat":37.780064,"lng":-122.393173,"icon":"cleanify.png","url":"http://cleanify.com","batch":"Silicon Valley Batch 011","crunchbase_url":"https://www.crunchbase.com/organization/cleanify"}
{"_id":{"$oid":"587d9bc2734d1d5b7d4620c2"},"name":"Funnely","address":"33 Nassau Ave.","city":"Brooklyn","state":"New York","zip":"11222","country":"United States","lat":40.723192,"lng":-73.952991,"icon":"funnely.png","url":"http://funne.ly","batch":"Silicon Valley Batch 011","crunchbase_url":"https://www.crunchbase.com/organization/funnely"}
{"_id":{"$oid":"587d9cdd734d1d5b7d46211d"},"name":"Growbots","address":"965 Mission Street","city":"San Francisco","state":"California","zip":"94103","country":"United States","lat":37.781409,"lng":-122.407592,"icon":"growbots.png","url":"http://growbots.com","batch":"San Francisco Batch 012","crunchbase_url":"https://www.crunchbase.com/organization/growbots"}
{"_id":{"$oid":"587d9d60734d1d5b7d462134"},"name":"Backlot Cars","address":"1000 W. 25th St., Suite E","city":"Kansas City","state":"Missouri","zip":"64108","country":"United States","lat":39.083665,"lng":-94.596725,"icon":"backlotcars.png","url":"http://backlotcars.com","batch":"San Francisco Batch 012","crunchbase_url":"https://www.crunchbase.com/organization/backlot-cars"}
{"_id":{"$oid":"587d9dda734d1d5b7d46214e"},"name":"Sunshine App","address":"44 Tehama St., 5th Floor","city":"San Francisco","state":"California","zip":"94105","country":"United States","lat":37.787601,"lng":-122.396643,"icon":"sunshineapp.png","url":"http://sunshineapp.com","batch":"San Francisco Batch 012","crunchbase_url":"https://www.crunchbase.com/organization/sunshine-app"}
{"_id":{"$oid":"587d9e95734d1d5b7d46218b"},"name":"RAUR","icon":"raur.png","url":"http://raur.co","batch":"San Francisco Batch 012","crunchbase_url":"https://www.crunchbase.com/organization/instarad-io"}
{"_id":{"$oid":"587d9f11734d1d5b7d4621a4"},"name":"InnovAccer","address":"350 Cambridge Ave.","city":"Palo Alto","state":"California","zip":"94306","country":"United States","lat":37.428206,"lng":-122.144967,"icon":"innovaccer.png","url":"http://innovaccer.com","batch":"San Francisco Batch 012","crunchbase_url":"https://www.crunchbase.com/organization/innovaccer"}
{"_id":{"$oid":"587d9fb0734d1d5b7d4621dd"},"name":"Edfa3ly","address":"14 Prince Waleed Bin-Thinyan Al-Saud St.","city":"Cairo","state":null,"zip":null,"country":"Egypt","lat":30.096796,"lng":31.37392,"icon":"edfa3ly.png","url":"http://edfa3ly.co","batch":"San Francisco Batch 012","crunchbase_url":"https://www.crunchbase.com/organization/edfa3ly"}
{"_id":{"$oid":"587da02c734d1d5b7d4621fd"},"name":"Roost","address":"637 Natoma St.","city":"San Francisco","state":"California","zip":"94103","country":"United States","lat":37.777599,"lng":-122.410554,"icon":"roost.png","url":"http://roost.com","batch":"San Francisco Batch 012","crunchbase_url":"https://www.crunchbase.com/organization/roost"}
{"_id":{"$oid":"587da0bd734d1d5b7d462219"},"name":"KidzJet","address":"951 Mariners Island Blvd, Suite 300","city":"San Mateo","state":"California","zip":"94403","country":"United States","lat":37.559218,"lng":-122.286824,"icon":"kidzjet.png","url":"http://kidzjet.com","batch":"San Francisco Batch 012","crunchbase_url":"https://www.crunchbase.com/organization/kidzjet"}
{"_id":{"$oid":"587da0fa734d1d5b7d462237"},"name":"DCHQ","icon":"dchq.png","url":"http://dchq.co","batch":"San Francisco Batch 012","crunchbase_url":"https://www.crunchbase.com/organization/dchq"}
{"_id":{"$oid":"587da273734d1d5b7d462281"},"name":"Alfred","icon":"alfred.png","url":"http://my-alfred.com","batch":"San Francisco Batch 012","crunchbase_url":"https://www.crunchbase.com/organization/alfred-2"}
{"_id":{"$oid":"587da2e5734d1d5b7d46229d"},"name":"FlashRatings","icon":"flashratings.png","url":"http://flashratings.com","batch":"San Francisco Batch 012","crunchbase_url":"https://www.crunchbase.com/organization/flashratings"}
{"_id":{"$oid":"587da323734d1d5b7d4622af"},"name":"Contentools","icon":"contentools.png","url":"http://contentools.com","batch":"San Francisco Batch 012","crunchbase_url":"https://www.crunchbase.com/organization/contentools"}
{"_id":{"$oid":"587da382734d1d5b7d4622c8"},"name":"misterb\u0026b","icon":"misterbnb.png","url":"http://misterbandb.com","batch":"San Francisco Batch 012","crunchbase_url":"https://www.crunchbase.com/organization/misterbnb"}
{"_id":{"$oid":"587da3f5734d1d5b7d4622d4"},"name":"Gogohire","address":"514 Mission St.","city":"San Francisco","state":"California","zip":"94103","country":"United States","lat":37.789563,"lng":-122.397867,"icon":"gogohire.png","url":"http://gogohire.com","batch":"San Francisco Batch 012","crunchbase_url":"https://www.crunchbase.com/organization/gogohire"}
{"_id":{"$oid":"587da430734d1d5b7d4622db"},"name":"uTrack TV","icon":"utracktv.png","url":"http://utrack.tv","batch":"San Francisco Batch 012","crunchbase_url":"https://www.crunchbase.com/organization/utrack-tv"}
{"_id":{"$oid":"587ebc19734d1d5b7d46db44"},"name":"Nancy","icon":"nancy.png","url":"http://nancy.launchrock.com/","batch":"Silicon Valley Batch 013","crunchbase_url":"https://www.crunchbase.com/organization/nancy"}
{"_id":{"$oid":"587ebc5b734d1d5b7d46db56"},"name":"ChattingCat","icon":"chattingcat.png","url":"http://chattingcat.com","batch":"Silicon Valley Batch 013","crunchbase_url":"https://www.crunchbase.com/organization/chattingcat-co"}
{"_id":{"$oid":"587ebcbe734d1d5b7d46dba3"},"name":"fishfishme","icon":"fishfishme.png","url":"http://fishfishme.com","batch":"Silicon Valley Batch 013","crunchbase_url":"https://www.crunchbase.com/organization/fishfishme"}
{"_id":{"$oid":"587ebd84734d1d5b7d46dc08"},"name":"Edools","address":"Rua Noronha Torresão, 24, Sala 608","city":"Rio de Janeiro","state":null,"zip":"24240-182","country":"Brazil","lat":-22.898346,"lng":-43.102624,"icon":"edools.png","url":"http://edools.com","batch":"Silicon Valley Batch 013","crunchbase_url":"https://www.crunchbase.com/organization/edools"}
{"_id":{"$oid":"587ebdd1734d1d5b7d46dc1d"},"name":"Storygami","icon":"storygami.png","url":"http://storygami.com","batch":"Silicon Valley Batch 013","crunchbase_url":"https://www.crunchbase.com/organization/storygami"}
{"_id":{"$oid":"587ebe5e734d1d5b7d46dc51"},"name":"Virect","address":"679 3rd St., 5th Floor","city":"San Francisco","state":"California","zip":"94107","country":"United States","lat":37.7795,"lng":-122.393038,"icon":"virect.png","url":"http://virect.com","batch":"Silicon Valley Batch 013","crunchbase_url":"https://www.crunchbase.com/organization/virect"}
{"_id":{"$oid":"587ebf06734d1d5b7d46dc65"},"name":"Green Way Laboratories","address":"2428 Creekwood Drive","city":"Bozeman","state":"Montana","zip":"59715","country":"United States","lat":45.703401,"lng":-111.004492,"icon":"greenway.png","url":"http://masticlean.com","batch":"Silicon Valley Batch 013","crunchbase_url":"https://www.crunchbase.com/organization/green-way-laboratories-inc"}
{"_id":{"$oid":"587ebf48734d1d5b7d46dc7f"},"name":"Pixc","icon":"pixc.png","url":"http://pixc.com","batch":"Silicon Valley Batch 013","crunchbase_url":"https://www.crunchbase.com/organization/pixc"}
{"_id":{"$oid":"587ec057734d1d5b7d46dcc3"},"name":"Publishizer","icon":"publishizer.png","url":"http://publishizer.com","batch":"Silicon Valley Batch 013","crunchbase_url":"https://www.crunchbase.com/organization/publishizer"}
{"_id":{"$oid":"587ec120734d1d5b7d46dce8"},"name":"CellBreaker","address":"318 Blackwell St","city":"Durham","state":"North Carolina","zip":"27701","country":"United States","lat":35.993246,"lng":-78.904464,"icon":"cellbreaker.png","url":"http://cellbreaker.com","batch":"Silicon Valley Batch 013","crunchbase_url":"https://www.crunchbase.com/organization/cellbreaker"}
{"_id":{"$oid":"587ec1b3734d1d5b7d46dcfd"},"name":"Konolabs","address":"679 3rd Street","city":"San Francisco","state":"California","zip":"94107","country":"United States","lat":37.7795,"lng":-122.393038,"icon":"konolabs.png","url":"http://kono.ai","batch":"Silicon Valley Batch 013","crunchbase_url":"https://www.crunchbase.com/organization/konolabs-inc"}
{"_id":{"$oid":"587ec2a1734d1d5b7d46dd48"},"name":"Alumnify","address":"5955 Linda Vista Rd.","city":"San Diego","state":"California","zip":"92110","country":"United States","lat":32.771089,"lng":-117.185445,"icon":"alumnify.png","url":"http://alumnify.co","batch":"Silicon Valley Batch 013","crunchbase_url":"https://www.crunchbase.com/organization/alumnify"}
{"_id":{"$oid":"587ee329734d1d5b7d46e76c"},"name":"ZendyHealth","address":"1200 Santee St, Suite 201","city":"Los Angeles","state":"California","zip":"90015","country":"United States","lat":34.035981,"lng":-118.257358,"icon":"zendyhealth.png","url":"http://zendyhealth.com","batch":"San Francisco Batch 014","crunchbase_url":"https://www.crunchbase.com/organization/zendyhealth"}
{"_id":{"$oid":"587ee36b734d1d5b7d46e796"},"name":"Urjakart","icon":"urjakart.png","url":"http://urjakart.com","batch":"San Francisco Batch 014","crunchbase_url":"https://www.crunchbase.com/organization/urjakart"}
{"_id":{"$oid":"587ee3a9734d1d5b7d46e79e"},"name":"VillageDefense","icon":"villagedefense.png","url":"http://villagedefense.com","batch":"San Francisco Batch 014","crunchbase_url":"https://www.crunchbase.com/organization/village-defense"}
{"_id":{"$oid":"587ee436734d1d5b7d46e7c3"},"name":"Saint Harridan","address":"3094 East 10th St, Studio 7","city":"Oakland","state":"California","zip":"94601","country":"United States","lat":37.776454,"lng":-122.228522,"icon":"saintharridan.png","url":"http://saintharridan.com","batch":"San Francisco Batch 014","crunchbase_url":"https://www.crunchbase.com/organization/saint-harridan"}
{"_id":{"$oid":"587ee46e734d1d5b7d46e7cd"},"name":"TruckTrack","icon":"trucktrack.png","url":"http://trucktrack.co","batch":"San Francisco Batch 014","crunchbase_url":"https://www.crunchbase.com/organization/trucktrack"}
{"_id":{"$oid":"587ee4c0734d1d5b7d46e7da"},"name":"Stamplay","icon":"stamplay.png","url":"http://stamplay.com","batch":"San Francisco Batch 014","crunchbase_url":"https://www.crunchbase.com/organization/stamplay"}
{"_id":{"$oid":"587ee60a734d1d5b7d46e84c"},"name":"Sajilni","address":"King Hussein Business Park, Building 7","city":"Amman","state":null,"zip":"11822","country":"Jordan","lat":31.972005,"lng":35.8348508,"icon":"sajilni.png","url":"http://sajilni.com","batch":"San Francisco Batch 014","crunchbase_url":"https://www.crunchbase.com/organization/sajilni"}
{"_id":{"$oid":"587ee6e4734d1d5b7d46e884"},"name":"SweepSouth","address":"Loop Street, Cape Town City Centre","city":"Cape Town","state":null,"zip":"8001","country":"South Africa","lat":-33.921295,"lng":18.419251,"icon":"sweepsouth.png","url":"http://sweepsouth.com","batch":"San Francisco Batch 014","crunchbase_url":"https://www.crunchbase.com/organization/sweepsouth"}
{"_id":{"$oid":"587ee7ae734d1d5b7d46e8bf"},"name":"Remitbee","address":"29A Dundas St. East","city":"Mississauga","state":"Ontario","zip":"L5A 1V9","country":"Canada","lat":43.581391,"lng":-79.615888,"icon":"remitbee.png","url":"http://remitbee.com","batch":"San Francisco Batch 014","crunchbase_url":"https://www.crunchbase.com/organization/remitbee"}
{"_id":{"$oid":"587ee899734d1d5b7d46e936"},"name":"Pacifica Labs","icon":"pacifica.png","url":"http://thinkpacifica.com","batch":"San Francisco Batch 014","crunchbase_url":"https://www.crunchbase.com/organization/pacifica-labs"}
{"_id":{"$oid":"587ee943734d1d5b7d46e98c"},"name":"Kudobuzz","icon":"kudobuzz.png","url":"http://kudobuzz.com","batch":"San Francisco Batch 014","crunchbase_url":"https://www.crunchbase.com/organization/kudobuzz"}
{"_id":{"$oid":"587ee9b8734d1d5b7d46e9b3"},"name":"MapJam","icon":"mapjam.png","url":"http://mapjam.com","batch":"San Francisco Batch 014","crunchbase_url":"https://www.crunchbase.com/organization/mapjam"}
{"_id":{"$oid":"587eea19734d1d5b7d46e9d8"},"name":"StackShare","icon":"stackshare.png","url":"http://stackshare.io","batch":"San Francisco Batch 014","crunchbase_url":"https://www.crunchbase.com/organization/stackshare"}
{"_id":{"$oid":"587eeaaf734d1d5b7d46ea13"},"name":"Lab Sensor Solutions","address":"648 El Camino Real, Suite C-P","city":"Redwood City","state":"California","zip":"94063","country":"United States","lat":37.48786,"lng":-122.237354,"icon":"labsensor.png","url":"http://labsensorsolutions.com","batch":"San Francisco Batch 014","crunchbase_url":"https://www.crunchbase.com/organization/lab-sensor-solutions"}
{"_id":{"$oid":"587eeb21734d1d5b7d46ea1d"},"name":"Eyes On Freight","address":"1601 South Providence Road","city":"Columbia","state":"Missouri","zip":"65211","country":"United States","lat":38.931414,"lng":-92.338457,"icon":"eyesonfreight.png","url":"http://eyesonfreight.com","batch":"San Francisco Batch 014","crunchbase_url":"https://www.crunchbase.com/organization/eyes-on-freight"}
{"_id":{"$oid":"587eebae734d1d5b7d46ea36"},"name":"Encore Alert","address":"1400 Key Blvd, Suite #100","city":"Arlington","state":"Virginia","zip":"22209","country":"United States","lat":38.896127,"lng":-77.073596,"icon":"encorealert.png","url":"http://encorealert.com","batch":"San Francisco Batch 014","crunchbase_url":"https://www.crunchbase.com/organization/encore"}
{"_id":{"$oid":"58802eeb734d1d5b7d478f15"},"name":"Fuzzy.ai","address":"5333 Avenue Casgrain, Suite 1227","city":"Montreal","state":"Quebec","zip":"H2T 1X3","country":"Canada","lat":45.52617,"lng":-73.595012,"icon":"fuzzy.png","url":"http://fuzzy.ai","batch":"San Francisco Batch 014","crunchbase_url":"https://www.crunchbase.com/organization/fuzzy-io"}
{"_id":{"$oid":"58802fa8734d1d5b7d478f32"},"name":"GiftStarter","address":"999 Third Avenue, Suite 700","city":"Seattle","state":"Washington","zip":"98104","country":"United States","lat":47.604981,"lng":-122.334249,"icon":"giftstarter.png","url":"http://giftstarter.com","batch":"San Francisco Batch 014","crunchbase_url":"https://www.crunchbase.com/organization/giftstarter"}
{"_id":{"$oid":"5880301e734d1d5b7d478f41"},"name":"Havenly","address":"3461 Ringsby Court, Suite 405","city":"Denver","state":"Colorado","zip":"80216","country":"United States","lat":39.772285,"lng":-104.983724,"icon":"havenly.png","url":"http://havenly.com","batch":"San Francisco Batch 014","crunchbase_url":"https://www.crunchbase.com/organization/havenly"}
{"_id":{"$oid":"58803053734d1d5b7d478f48"},"name":"Apptuto","icon":"apptuto.png","url":"http://apptuto.com","batch":"San Francisco Batch 014","crunchbase_url":"https://www.crunchbase.com/organization/apptuto"}
{"_id":{"$oid":"588030de734d1d5b7d478f5c"},"name":"AutoLotto","address":"1 Letterman Drive","city":"San Francisco","state":"California","zip":"94115","country":"United States","lat":37.799453,"lng":-122.449378,"icon":"autolotto.png","url":"http://autolotto.com","batch":"San Francisco Batch 014","crunchbase_url":"https://www.crunchbase.com/organization/auto-lotto"}
{"_id":{"$oid":"5880316d734d1d5b7d478f7a"},"name":"ConcertWithMe","icon":"concertwithme.png","url":"http://concertwith.me","batch":"San Francisco Batch 014","crunchbase_url":"https://www.crunchbase.com/organization/concertwithme"}
{"_id":{"$oid":"58803245734d1d5b7d478fbf"},"name":"StreetHawk","address":"70 Pitt St, Level 14","city":"Sydney","state":"NSW","zip":"2000","country":"Australia","lat":-33.866166,"lng":151.208941,"icon":"streethawk.png","url":"http://streethawk.com","batch":"San Francisco Batch 014","crunchbase_url":"https://www.crunchbase.com/organization/streethawk"}
{"_id":{"$oid":"58803310734d1d5b7d478fd4"},"name":"Junior Explorers","address":"195 Plymouth St, Suite 417","city":"Brooklyn","state":"New York","zip":"11201","country":"United States","lat":40.703898,"lng":-73.985431,"icon":"juniorexplorers.png","url":"http://juniorexplorers.com","batch":"San Francisco Batch 014","crunchbase_url":"https://www.crunchbase.com/organization/junior-explorers-club"}
{"_id":{"$oid":"58803359734d1d5b7d478fe4"},"name":"Datasembly","icon":"datasembly.png","url":"http://datasembly.com","batch":"San Francisco Batch 014","crunchbase_url":"https://www.crunchbase.com/organization/datasembly"}
{"_id":{"$oid":"5880341b734d1d5b7d479006"},"name":"YOU-App","icon":"youapp.png","url":"http://you-app.com","batch":"San Francisco Batch 014","crunchbase_url":"https://www.crunchbase.com/organization/you-app"}
{"_id":{"$oid":"58803507734d1d5b7d47904e"},"name":"Aircall","address":"42 rue du faubourg Poissonnière","city":"Paris","state":null,"zip":"75010","country":"France","lat":48.8738573,"lng":2.3459238,"icon":"aircall.png","url":"http://aircall.io","batch":"San Francisco Batch 014","crunchbase_url":"https://www.crunchbase.com/organization/aircall"}
{"_id":{"$oid":"58803647734d1d5b7d479087"},"name":"Baker","address":"2420 17th St.","city":"Denver","state":"Colorado","zip":"80202","country":"United States","lat":39.758451,"lng":-105.007625,"icon":"baker.png","url":"http://trybaker.com","batch":"San Francisco Batch 014","crunchbase_url":"https://www.crunchbase.com/organization/baker-technologies"}
{"_id":{"$oid":"588036c0734d1d5b7d4790a9"},"name":"BetterView","icon":"betterview.png","url":"http://better.vu","batch":"San Francisco Batch 014","crunchbase_url":"https://www.crunchbase.com/organization/betterview"}
{"_id":{"$oid":"588036fc734d1d5b7d4790c3"},"name":"Pipefy","icon":"pipefy.png","url":"http://pipefy.com","batch":"San Francisco Batch 014","crunchbase_url":"https://www.crunchbase.com/organization/pipefy"}
{"_id":{"$oid":"5880383b734d1d5b7d4790eb"},"name":"Principly (now CollegeBacker)","icon":"principly.png","url":"http://collegebacker.com","batch":"San Francisco Batch 014","crunchbase_url":"https://www.crunchbase.com/organization/collegebacker"}
{"_id":{"$oid":"588038c9734d1d5b7d479111"},"name":"Decisive Health","icon":"decisivehealth.png","url":"http://decisivehealth.com","batch":"San Francisco Batch 014","crunchbase_url":"https://www.crunchbase.com/organization/decisive-health"}
{"_id":{"$oid":"58803951734d1d5b7d479123"},"name":"MonkeyLearn","address":"44 Tehama St","city":"San Francisco","state":"California","zip":"94105","country":"United States","lat":37.787601,"lng":-122.396643,"icon":"monkeylearn.png","url":"http://monkeylearn.com","batch":"San Francisco Batch 014","crunchbase_url":"https://www.crunchbase.com/organization/monkeylearn"}
{"_id":{"$oid":"5880398f734d1d5b7d47912b"},"name":"43Layers","icon":"43layers.png","url":"http://43layers.com","batch":"San Francisco Batch 014","crunchbase_url":"https://www.crunchbase.com/organization/43-layers"}
{"_id":{"$oid":"58803a84734d1d5b7d479151"},"name":"Concepts by TopHatch","icon":"concepts.png","url":"http://concepts.tophatch.com","batch":"San Francisco Batch 014","crunchbase_url":"https://www.crunchbase.com/organization/tophatch"}
{"_id":{"$oid":"58803c26734d1d5b7d4791b2"},"name":"Drivio","address":"41 129th Street South, Unit 133","city":"Ozone Park","state":"New York","zip":"11420","country":"United States","lat":40.669254,"lng":-73.810339,"icon":"drivio.png","url":"http://drivio.com","batch":"Silicon Valley Batch 015","crunchbase_url":"https://www.crunchbase.com/organization/drivio-2"}
{"_id":{"$oid":"58803cda734d1d5b7d4791e2"},"name":"LawTrades","address":"500 7th Ave, Floor 17","city":"New York","state":"New York","zip":"10018","country":"United States","lat":40.753159,"lng":-73.98936,"icon":"lawtrades.png","url":"http://lawtrades.com","batch":"Silicon Valley Batch 015","crunchbase_url":"https://www.crunchbase.com/organization/lawtrades"}
{"_id":{"$oid":"58803d2a734d1d5b7d4791f5"},"name":"Whiplash","icon":"whiplash.png","url":"http://whiplashmerch.com","batch":"Silicon Valley Batch 015","crunchbase_url":"https://www.crunchbase.com/organization/whiplash-2"}
{"_id":{"$oid":"58803d6e734d1d5b7d4791f9"},"name":"MOVEHA","icon":"moveha.png","url":"http://moveha.com","batch":"Silicon Valley Batch 015","crunchbase_url":"https://www.crunchbase.com/organization/moveha"}
{"_id":{"$oid":"58803dd3734d1d5b7d47920e"},"name":"Cooleaf","address":"3423 Piedmont Rd NE","city":"Atlanta","state":"Georgia","zip":"30305","country":"United States","lat":33.848673,"lng":-84.373313,"icon":"cooleaf.png","url":"http://cooleaf.com","batch":"Silicon Valley Batch 015","crunchbase_url":"https://www.crunchbase.com/organization/cooleaf"}
{"_id":{"$oid":"58803e48734d1d5b7d47922e"},"name":"Sqoop","icon":"sqoop.png","url":"http://sqoop.com","batch":"Silicon Valley Batch 015","crunchbase_url":"https://www.crunchbase.com/organization/sqoop-inc-"}
{"_id":{"$oid":"58803f65734d1d5b7d479270"},"name":"WoowUp","address":"Av. Cabildo 2040","city":"C1428AAP CABA","state":null,"zip":null,"country":"Argentina","lat":-34.5626607,"lng":-58.4583957,"icon":"woowup.png","url":"http://woowup.com","batch":"Silicon Valley Batch 015","crunchbase_url":"https://www.crunchbase.com/organization/woowup"}
{"_id":{"$oid":"58803fb4734d1d5b7d479274"},"name":"Rapchat","icon":"rapchat.png","url":"http://rapchat.me","batch":"Silicon Valley Batch 015","crunchbase_url":"https://www.crunchbase.com/organization/rapchat"}
{"_id":{"$oid":"58817bee734d1d5b7d4830ff"},"name":"Flycrates","address":"1450 Sutter St, PMB 542","city":"San Francisco","state":"California","zip":"94109","country":"United States","lat":37.787455,"lng":-122.424282,"icon":"flycrates.png","url":"http://flycrates.com","batch":"Silicon Valley Batch 015","crunchbase_url":null}
{"_id":{"$oid":"58817c68734d1d5b7d483124"},"name":"SynapseMX","address":"75 Fifth Street NW, Suite 2403","city":"Atlanta","state":"Georgia","zip":"30308","country":"United States","lat":33.777375,"lng":-84.389305,"icon":"synapsemx.png","url":"http://synapsemx.com","batch":"Silicon Valley Batch 015","crunchbase_url":"https://www.crunchbase.com/organization/synapsemx"}
{"_id":{"$oid":"58817cf4734d1d5b7d48314c"},"name":"Quicklegal","address":"555 California Street, Suite 4925","city":"San Francisco","state":"California","zip":"94104","country":"United States","lat":37.792062,"lng":-122.403715,"icon":"quicklegal.png","url":"http://quicklegal.com","batch":"Silicon Valley Batch 015","crunchbase_url":"https://www.crunchbase.com/organization/quicklegal"}
{"_id":{"$oid":"58817dd5734d1d5b7d48319d"},"name":"Simpliroute","address":"Av Suecia 0155, Oficina 303","city":"Santiago","state":null,"zip":null,"country":"Chile","lat":-33.42198,"lng":-70.607243,"icon":"simpliroute.png","url":"http://simpliroute.com","batch":"Silicon Valley Batch 015","crunchbase_url":"https://www.crunchbase.com/organization/simpliroute"}
{"_id":{"$oid":"58817e46734d1d5b7d4831b4"},"name":"Set Scouter","address":"425 Adelaide St. W, Suite 400","city":"Toronto","state":"Ontario","zip":"M5V 2C3","country":"Canada","lat":43.646098,"lng":-79.397741,"icon":"setscouter.png","url":"http://setscouter.com","batch":"Silicon Valley Batch 015","crunchbase_url":"https://www.crunchbase.com/organization/set-scouter-2"}
{"_id":{"$oid":"58817ea9734d1d5b7d4831e1"},"name":"Sales Huddle Group","address":"411 Lafayette St., 6th Floor","city":"New York","state":"New York","zip":"10003","country":"United States","lat":40.728322,"lng":-73.992157,"icon":"saleshuddlegroup.png","url":"http://saleshuddlegroup.com","batch":"Silicon Valley Batch 015","crunchbase_url":"https://www.crunchbase.com/organization/sales-huddle-group"}
{"_id":{"$oid":"58817ee4734d1d5b7d4831e7"},"name":"QueueDr","icon":"queuedr.png","url":"http://queuedr.com","batch":"Silicon Valley Batch 015","crunchbase_url":"https://www.crunchbase.com/organization/queuedr"}
{"_id":{"$oid":"5881804d734d1d5b7d48321d"},"name":"Piper","icon":"piper.png","url":"http://playpiper.com","batch":"Silicon Valley Batch 015","crunchbase_url":"https://www.crunchbase.com/organization/piper-2"}
{"_id":{"$oid":"58818086734d1d5b7d48321e"},"name":"PupBox","icon":"pupbox.png","url":"http://pupbox.com","batch":"Silicon Valley Batch 015","crunchbase_url":"https://www.crunchbase.com/organization/pupbox"}
{"_id":{"$oid":"58818169734d1d5b7d483274"},"name":"QMagico","icon":"qmagico.png","url":"http://qmagico.com.br","batch":"Silicon Valley Batch 015","crunchbase_url":"https://www.crunchbase.com/organization/qmagico"}
{"_id":{"$oid":"58818226734d1d5b7d4832c8"},"name":"Mobingi","address":"3-5-7 Ebisu-Minami, Shibuya-ku","city":"Tokyo","state":null,"zip":"150-0022","country":"Japan","lat":35.646629,"lng":139.703832,"icon":"mobingi.png","url":"http://mobingi.com","batch":"Silicon Valley Batch 015","crunchbase_url":"https://www.crunchbase.com/organization/mobingi"}
{"_id":{"$oid":"588182e1734d1d5b7d4832f7"},"name":"Nobal Technologies","address":"1212 9th Ave SE","city":"Calgary","state":"Alberta","zip":"T2G 0T1","country":"Canada","lat":51.042075,"lng":-114.036082,"icon":"nobal.png","url":"http://nobal.ca","batch":"Silicon Valley Batch 015","crunchbase_url":"https://www.crunchbase.com/organization/nobal"}
{"_id":{"$oid":"588183a2734d1d5b7d48334a"},"name":"MentorCloud","address":"1355 Market St., Suite 488","city":"San Francisco","state":"California","zip":"94103","country":"United States","lat":37.77679,"lng":-122.416405,"icon":"mentorcloud.png","url":"http://mentorcloud.com","batch":"Silicon Valley Batch 015","crunchbase_url":"https://www.crunchbase.com/organization/mentorcloud"}
{"_id":{"$oid":"58818460734d1d5b7d48338a"},"name":"MetaMixis","address":"2350 Health Sciences Mall, Unit 2552","city":"Vancouver","state":"British Columbia","zip":"V6T 1Z3","country":"Canada","lat":49.262361,"lng":-123.244944,"icon":"metamixis.png","url":"http://metamixis.com","batch":"Silicon Valley Batch 015","crunchbase_url":"https://www.crunchbase.com/organization/metamixis"}
{"_id":{"$oid":"58818552734d1d5b7d4833d9"},"name":"Mejuri","address":"10 Dundas St. East, Suite 600","city":"Toronto","state":"Ontario","zip":"M5B 2R8","country":"Canada","lat":43.65665,"lng":-79.380485,"icon":"mejuri.png","url":"http://mejuri.com","batch":"Silicon Valley Batch 015","crunchbase_url":"https://www.crunchbase.com/organization/mejuri"}
{"_id":{"$oid":"588185ec734d1d5b7d483401"},"name":"Metadata","address":"720 Market St, Unit 300","city":"San Francisco","state":"California","zip":"94102","country":"United States","lat":37.787601,"lng":-122.404064,"icon":"metadata.png","url":"http://metadata.io","batch":"Silicon Valley Batch 015","crunchbase_url":"https://www.crunchbase.com/organization/metadata"}
{"_id":{"$oid":"5881862d734d1d5b7d48341a"},"name":"Mahmee","icon":"mahmee.png","url":"http://mahmee.com","batch":"Silicon Valley Batch 015","crunchbase_url":"https://www.crunchbase.com/organization/mahmee"}
{"_id":{"$oid":"58818716734d1d5b7d483445"},"name":"LafaLafa","icon":"lafalafa.png","url":"http://lafalafa.com","batch":"Silicon Valley Batch 015","crunchbase_url":"https://www.crunchbase.com/organization/lafalafa"}
{"_id":{"$oid":"588187b1734d1d5b7d48346a"},"name":"Kitterly","address":"8118 West 3rd Street","city":"Los Angeles","state":"California","zip":"90048","country":"United States","lat":34.072054,"lng":-118.36656,"icon":"kitterly.png","url":"http://kitterly.com","batch":"Silicon Valley Batch 015","crunchbase_url":"https://www.crunchbase.com/organization/kitterly"}
{"_id":{"$oid":"588188ac734d1d5b7d48347a"},"name":"LawnGuru","address":"118 1/2 E. Washington Street","city":"Ann Arbor","state":"Michigan","zip":"48104","country":"United States","lat":42.280278,"lng":-83.747699,"icon":"lawnguru.png","url":"http://lawnguru.co","batch":"Silicon Valley Batch 015","crunchbase_url":"https://www.crunchbase.com/organization/lawnguru"}
{"_id":{"$oid":"588188e9734d1d5b7d48349a"},"name":"iWABOO","icon":"iwaboo.png","url":"http://iwaboo.com","batch":"Silicon Valley Batch 015","crunchbase_url":"https://www.crunchbase.com/organization/iwaboo-inc"}
{"_id":{"$oid":"58818948734d1d5b7d4834a5"},"name":"Kanler","address":"995 Marsh Rd.","city":"Redwood City","state":"California","zip":"94063","country":"United States","lat":37.478535,"lng":-122.186002,"icon":"kanler.png","url":"http://kanler.com","batch":"Silicon Valley Batch 015","crunchbase_url":"https://www.crunchbase.com/organization/kanler"}
{"_id":{"$oid":"58818b9a734d1d5b7d483553"},"name":"Fulfil.io","address":"67 Yonge St., Suite 1600","city":"Toronto","state":"Ontario","zip":"M5E 1J8","country":"Canada","lat":43.648784,"lng":-79.377518,"icon":"fulfilio.png","url":"http://fulfil.io","batch":"Silicon Valley Batch 015","crunchbase_url":"https://www.crunchbase.com/organization/fulfil-io"}
{"_id":{"$oid":"58818bf1734d1d5b7d48358f"},"name":"Hivebeat","icon":"hivebeat.png","url":"http://hivebeat.com","batch":"Silicon Valley Batch 015","crunchbase_url":"https://www.crunchbase.com/organization/hivebeat"}
{"_id":{"$oid":"58818c50734d1d5b7d483598"},"name":"Cirrus Identity","icon":"cirrus.png","url":"http://cirrusidentity.com","batch":"Silicon Valley Batch 015","crunchbase_url":"https://www.crunchbase.com/organization/cirrus-identity"}
{"_id":{"$oid":"58818ca9734d1d5b7d4835ac"},"name":"Beeketing","icon":"beeketing.png","url":"http://beeketing.com","batch":"Silicon Valley Batch 015","crunchbase_url":"https://www.crunchbase.com/organization/beeketing"}
{"_id":{"$oid":"58818ce0734d1d5b7d4835b7"},"name":"CodeUpStart","icon":"codeupstart.png","url":"http://codeupstart.com","batch":"Silicon Valley Batch 015","crunchbase_url":"https://www.crunchbase.com/organization/codeupstart"}
{"_id":{"$oid":"58818d48734d1d5b7d4835c2"},"name":"Clikky","icon":"clicky.png","url":"http://clicky.pk","batch":"Silicon Valley Batch 015","crunchbase_url":"https://www.crunchbase.com/organization/clikky-com"}
{"_id":{"$oid":"58818db5734d1d5b7d4835d2"},"name":"Barn \u0026 Willow","icon":"barnwillow.png","url":"http://barnandwillow.com","batch":"Silicon Valley Batch 015","crunchbase_url":"https://www.crunchbase.com/organization/barn-willow"}
{"_id":{"$oid":"58818eac734d1d5b7d48360c"},"name":"#links","address":"11/17 Soi Ruam Ruedi, Lumphini","city":"Bangkok","state":null,"zip":10330,"country":"Thailand","lat":13.7405638,"lng":100.5478932,"icon":"links.png","url":"http://getlinks.co","batch":"Silicon Valley Batch 015","crunchbase_url":"https://www.crunchbase.com/organization/getlinks"}
{"_id":{"$oid":"5881900a734d1d5b7d48366c"},"name":"SupplyAI (formerly DataCulture)","address":"180 Sansome St., 2nd Floor","city":"San Francisco","state":"California","zip":"94104","country":"United States","lat":37.791917,"lng":-122.400662,"icon":"supplyai.png","url":"http://supply.ai","batch":"Silicon Valley Batch 015","crunchbase_url":"https://www.crunchbase.com/organization/dataculture-inc-"}
{"_id":{"$oid":"5881916b734d1d5b7d4836ba"},"name":"Bglamor","icon":"bglamor.png","url":"http://bglamor.com","batch":"San Francisco Batch 016","crunchbase_url":"https://www.crunchbase.com/organization/bglamor"}
{"_id":{"$oid":"5881921d734d1d5b7d4836f9"},"name":"Buildcon","icon":"buildcon.png","url":"http://buildcon.org","batch":"San Francisco Batch 016","crunchbase_url":"https://www.crunchbase.com/organization/buildcon"}
{"_id":{"$oid":"588192bd734d1d5b7d48372d"},"name":"YoDerm","address":"101 Broadway, Suite 310","city":"Oakland","state":"California","zip":"94607","country":"United States","lat":37.795673,"lng":-122.277,"icon":"yoderm.png","url":"http://yoderm.com","batch":"San Francisco Batch 016","crunchbase_url":"https://www.crunchbase.com/organization/yoderm"}
{"_id":{"$oid":"58819393734d1d5b7d483766"},"name":"BrewPublik","address":"1000 NC Music Factory Boulevard","city":"Charlotte","state":"North Carolina","zip":"28206","country":"United States","lat":35.239377,"lng":-80.845654,"icon":"brewpublik.png","url":"http://brewpublik.com","batch":"San Francisco Batch 016","crunchbase_url":"https://www.crunchbase.com/organization/brewpublik-2"}
{"_id":{"$oid":"5881944b734d1d5b7d483789"},"name":"iGrow","address":"Jl Juanda No 43 Depok","city":"Jawa Barat","state":null,"zip":"16418","country":"Indonesia","lat":-6.380142,"lng":106.853324,"icon":"igrow.png","url":"http://igrow.asia","batch":"San Francisco Batch 016","crunchbase_url":"https://www.crunchbase.com/organization/igrow"}
{"_id":{"$oid":"588194c3734d1d5b7d48379e"},"name":"Phenom","address":"2206 West Superior Viaduct, Suite 500","city":"Cleveland","state":"Ohio","zip":"44113","country":"United States","lat":41.493531,"lng":-81.705825,"icon":"phenom.png","url":"http://phenom.co","batch":"San Francisco Batch 016","crunchbase_url":"https://www.crunchbase.com/organization/phenom"}
{"_id":{"$oid":"58819545734d1d5b7d4837b7"},"name":"UpCraft Club","icon":"upcraftclub.png","url":"http://upcraftclub.com","batch":"San Francisco Batch 016","crunchbase_url":"https://www.crunchbase.com/organization/upcraft-club"}
{"_id":{"$oid":"588195f6734d1d5b7d4837c3"},"name":"RapidAPI","address":"Menachem Begin Blv. 148","city":"Tel Aviv","state":null,"zip":null,"country":"Israel","lat":32.078887,"lng":34.794534,"icon":"rapidapi.png","url":"http://rapidapi.com","batch":"San Francisco Batch 016","crunchbase_url":"https://www.crunchbase.com/organization/rapidapi"}
{"_id":{"$oid":"588196bf734d1d5b7d4837ed"},"name":"nurseVersity","icon":"nurseversity.png","url":"http://nurseversity.com","batch":"San Francisco Batch 016","crunchbase_url":"https://www.crunchbase.com/organization/nurseversity"}
{"_id":{"$oid":"5882ec79734d1d75e11a36a9"},"name":"Ingu Solutions","address":"211 Wheeler Street","city":"Saskatoon","state":"Saskatchewan","zip":"S7P 0A4","country":"United States","lat":52.191067,"lng":-106.629276,"icon":"ingu.png","url":"http://ingu.co","batch":"San Francisco Batch 016","crunchbase_url":"https://www.crunchbase.com/organization/ingu-solutions"}
{"_id":{"$oid":"5882ecf9734d1d75e11a36ab"},"name":"Podozi","address":"170, Oniwaya","city":"Lagos","state":null,"zip":"100001","country":"Nigeria","lat":6.619356,"lng":3.323212,"icon":"podozi.png","url":"http://podozi.com","batch":"San Francisco Batch 016","crunchbase_url":"https://www.crunchbase.com/organization/podozi"}
{"_id":{"$oid":"5882ed2f734d1d75e11a36ac"},"name":"YouStake","icon":"youstake.png","url":"http://youstake.com","batch":"San Francisco Batch 016","crunchbase_url":"https://www.crunchbase.com/organization/youstake"}
{"_id":{"$oid":"5882eda7734d1d75e11a36ae"},"name":"Indemand","icon":"indemand.png","url":"http://tryindemand.com","batch":"San Francisco Batch 016","crunchbase_url":"https://www.crunchbase.com/organization/indemand"}
{"_id":{"$oid":"5882ee5d734d1d75e11a36b7"},"name":"M-vendr","address":"9 Park Square East","city":"Leeds","state":null,"zip":"LS1 2LH","country":"United Kingdom","lat":53.798745,"lng":-1.55078,"icon":"mvendr.png","url":"http://mvendr.com","batch":"San Francisco Batch 016","crunchbase_url":"https://www.crunchbase.com/organization/m-vendr"}
{"_id":{"$oid":"5882eefd734d1d75e11a36bd"},"name":"Albert","address":"6121 Sunset Boulevard","city":"Los Angeles","state":"California","zip":"90028","country":"United States","lat":34.098483,"lng":-118.323322,"icon":"albert.png","url":"http://meetalbert.com","batch":"San Francisco Batch 016","crunchbase_url":"https://www.crunchbase.com/organization/albert-3"}
{"_id":{"$oid":"5882ef46734d1d75e11a36d6"},"name":"ManyChat","icon":"manychat.png","url":"http://manychat.com","batch":"San Francisco Batch 016","crunchbase_url":"https://www.crunchbase.com/organization/manychat"}
{"_id":{"$oid":"5882efb5734d1d75e11a36e1"},"name":"easy ten","address":"Chapligina 6","city":"Moscow","state":"California","zip":"109117","country":"Russia","lat":55.763924,"lng":37.645968,"icon":"easyten.png","url":"http://easyten.ru","batch":"San Francisco Batch 016","crunchbase_url":"https://www.crunchbase.com/organization/easy-ten"}
{"_id":{"$oid":"5882f4ae734d1d75e11a3776"},"name":"iBillionaire","address":"154 Grand St., 2nd Floor","city":"New York","state":"New York","zip":"10013","country":"United States","lat":40.720203,"lng":-73.998676,"icon":"ibillionaire.png","url":"http://ibillionaire.com","batch":"San Francisco Batch 016","crunchbase_url":"https://www.crunchbase.com/organization/ibillionaire"}
{"_id":{"$oid":"5882f55e734d1d75e11a3781"},"name":"OpenSponsorship","address":"231 W 39th St","city":"New York","state":"New York","zip":"10018","country":"United States","lat":40.75492,"lng":-73.989665,"icon":"opensponsorship.png","url":"http://opensponsorship.com","batch":"San Francisco Batch 016","crunchbase_url":"https://www.crunchbase.com/organization/opensponsorship"}
{"_id":{"$oid":"5882f5d0734d1d75e11a3787"},"name":"Transtutors","address":"187 Wolf Road","city":"Albany","state":"New York","zip":"12205","country":"United States","lat":42.722183,"lng":-73.800671,"icon":"transtutors.png","url":"http://transtutors.com","batch":"San Francisco Batch 016","crunchbase_url":"https://www.crunchbase.com/organization/transweb-educational-services-pvt-ltd"}
{"_id":{"$oid":"5882f671734d1d75e11a3799"},"name":"Pilotly","address":"5 Embarcadero West","city":"Oakland","state":"California","zip":"94607","country":"United States","lat":37.791274,"lng":-122.268528,"icon":"pilotly.png","url":"http://pilot.ly","batch":"San Francisco Batch 016","crunchbase_url":"https://www.crunchbase.com/organization/groupflix"}
{"_id":{"$oid":"589500a0734d1d3956c41f1a"},"name":"Float","icon":"float.png","url":"http://hellofloat.com","batch":"San Francisco Batch 016","crunchbase_url":"https://www.crunchbase.com/organization/float-4"}
{"_id":{"$oid":"58950249734d1d3956c4207a"},"name":"Halolife","icon":"halolife.png","url":"http://halolife.com","batch":"San Francisco Batch 016","crunchbase_url":"https://www.crunchbase.com/organization/halolife"}
{"_id":{"$oid":"589502be734d1d3956c420a3"},"name":"Voyajoy","address":"584 Castro Street, Suite 129","city":"San Francisco","state":"California","zip":"94114","country":"United States","lat":37.759611,"lng":-122.435153,"icon":"voyajoy.png","url":"http://voyajoy.com","batch":"San Francisco Batch 016","crunchbase_url":"https://www.crunchbase.com/organization/voyajoy"}
{"_id":{"$oid":"589502fc734d1d3956c420b6"},"name":"ArrowPass","icon":"arrowpass.png","url":"http://arrowpass.com","batch":"San Francisco Batch 016","crunchbase_url":"https://www.crunchbase.com/organization/arrowpass"}
{"_id":{"$oid":"58950352734d1d3956c420d6"},"name":"Tackl","address":"156 2nd Street","city":"San Francisco","state":"California","zip":"94105","country":"United States","lat":37.787108,"lng":-122.399105,"icon":"tackl.png","url":"http://tackl.co","batch":"San Francisco Batch 016","crunchbase_url":"https://www.crunchbase.com/organization/tackl"}
{"_id":{"$oid":"589503ae734d1d3956c420fb"},"name":"Cognuse","address":"3210 Merryfield Row","city":"San Diego","state":"California","zip":"92121","country":"United States","lat":32.900946,"lng":-117.234997,"icon":"cognuse.png","url":"http://cognuse.com","batch":"San Francisco Batch 016","crunchbase_url":"https://www.crunchbase.com/organization/cognuse"}
{"_id":{"$oid":"5895040f734d1d3956c4210c"},"name":"Mars Reel","address":"4000 Warner Blvd, Suite 183","city":"Burbank","state":"California","zip":"91522","country":"United States","lat":34.148731,"lng":-118.338686,"icon":"marsreel.png","url":"http://marsreel.com","batch":"San Francisco Batch 016","crunchbase_url":"https://www.crunchbase.com/organization/mars-reel"}
{"_id":{"$oid":"58950488734d1d3956c4217b"},"name":"MaestroConference","address":"1025 3rd Street","city":"Oakland","state":"California","zip":"94607","country":"United States","lat":37.800557,"lng":-122.28682,"icon":"maestroconference.png","url":"http://maestroconference.com","batch":"San Francisco Batch 016","crunchbase_url":"https://www.crunchbase.com/organization/maestroconference"}
{"_id":{"$oid":"58957cc3734d1d3956c44e26"},"name":"Ample Foods","address":"1161 Mission Street","city":"San Francisco","state":"California","zip":"94103","country":"United States","lat":37.777906,"lng":-122.412042,"icon":"ample.png","url":"http://amplemeal.com","batch":"San Francisco Batch 016","crunchbase_url":"https://www.crunchbase.com/organization/ample-foods"}
{"_id":{"$oid":"58957d78734d1d3956c44eba"},"name":"BottlesTonight","address":"PO Box #590141","city":"San Francisco","state":"California","zip":"94118","country":"United States","lat":37.782289,"lng":-122.463708,"icon":"bottlestonight.png","url":"http://bottlestonightapp.com","batch":"San Francisco Batch 016","crunchbase_url":"https://www.crunchbase.com/organization/bottlestonight"}
{"_id":{"$oid":"58957ec3734d1d3956c44f3e"},"name":"Ticktate","address":"2227 Derby Street","city":"Berkeley","state":"California","zip":"94705","country":"United States","lat":37.861103,"lng":-122.263256,"icon":"ticktate.png","url":"http://ticktate.com","batch":"San Francisco Batch 016","crunchbase_url":"https://www.crunchbase.com/organization/ticktate"}
{"_id":{"$oid":"58957f9f734d1d3956c44f74"},"name":"WorkGenius","icon":"workgenius.png","url":"http://workgeni.us","batch":"San Francisco Batch 016","crunchbase_url":"https://www.crunchbase.com/organization/workgenius"}
{"_id":{"$oid":"5895801a734d1d3956c44f88"},"name":"simplifund","icon":"simplifund.png","url":"http://simplifund.me","batch":"San Francisco Batch 016","crunchbase_url":"https://www.crunchbase.com/organization/simplifund"}
{"_id":{"$oid":"589580cb734d1d3956c44f9d"},"name":"Resource","icon":"resource.png","url":"http://getresource.io","batch":"San Francisco Batch 016","crunchbase_url":"https://www.crunchbase.com/organization/resource-2"}
{"_id":{"$oid":"5895814a734d1d3956c44fb7"},"name":"tagMonkey","address":"926 Howard Street","city":"San Francisco","state":"California","zip":"94103","country":"United States","lat":37.781184,"lng":-122.405923,"icon":"tagmonkey.png","url":"http://tagmonkey.io","batch":"San Francisco Batch 016","crunchbase_url":"https://www.crunchbase.com/organization/tagmonkey"}
{"_id":{"$oid":"58958235734d1d3956c44fd9"},"name":"Qwil","address":"599 3rd Street, Suite 210","city":"San Francisco","state":"California","zip":"94107","country":"United States","lat":37.780447,"lng":-122.394253,"icon":"qwil.png","url":"http://qwil.co","batch":"San Francisco Batch 016","crunchbase_url":"https://www.crunchbase.com/organization/qwil"}
{"_id":{"$oid":"58958321734d1d3956c44ff4"},"name":"HandStack","address":"645 Harrison Street","city":"San Francisco","state":"California","zip":"94107","country":"United States","lat":37.783395,"lng":-122.39571,"icon":"handstack.png","url":"http://handstack.com","batch":"San Francisco Batch 016","crunchbase_url":"https://www.crunchbase.com/organization/handstack"}
{"_id":{"$oid":"58958441734d1d3956c4502d"},"name":"Riide","address":"1933 9th Street NW","city":"Washington","state":"District of Columbia","zip":"20001","country":"United States","lat":38.916577,"lng":-77.023963,"icon":"riide.png","url":"http://riide.com","batch":"San Francisco Batch 016","crunchbase_url":"https://www.crunchbase.com/organization/riide"}
{"_id":{"$oid":"5895853a734d1d3956c45063"},"name":"Rize","address":"3100 Clarendon Blvd, Suite 200","city":"Arlington","state":"Virginia","zip":"22201","country":"United States","lat":38.886345,"lng":-77.095489,"icon":"rize.png","url":"http://rizeup.io","batch":"San Francisco Batch 016","crunchbase_url":"https://www.crunchbase.com/organization/rize"}
{"_id":{"$oid":"58958590734d1d3956c45068"},"name":"Ader","icon":"ader.png","url":"http://getader.com","batch":"San Francisco Batch 016","crunchbase_url":"https://www.crunchbase.com/organization/ader"}
{"_id":{"$oid":"58958627734d1d3956c45077"},"name":"Arka","icon":"arka.png","url":"http://arka.io","batch":"San Francisco Batch 016","crunchbase_url":"https://www.crunchbase.com/organization/arka"}
{"_id":{"$oid":"589586bc734d1d3956c45082"},"name":"FoxType","icon":"foxtype.png","url":"http://foxtype.com","batch":"San Francisco Batch 016","crunchbase_url":"https://www.crunchbase.com/organization/foxtype"}
{"_id":{"$oid":"589587e2734d1d3956c450ad"},"name":"Romit","address":"123 Howard Street","city":"San Francisco","state":"California","zip":"94103","country":"United States","lat":37.791078,"lng":-122.392831,"icon":"romit.png","url":"http://romit.io","batch":"San Francisco Batch 016","crunchbase_url":"https://www.crunchbase.com/organization/romit-inc"}
{"_id":{"$oid":"5896afea734d1d3956c49a03"},"name":"Angel Sensor","address":"29 HaAlon","city":"Nordiya","state":"HaMerkaz","zip":"4295400","country":"Israel","lat":32.318337,"lng":34.899548,"icon":"angelsensor.png","url":"http://angelsensor.com","batch":"San Francisco Batch 016","crunchbase_url":"https://www.crunchbase.com/organization/angel-sensor"}
{"_id":{"$oid":"5896b04f734d1d3956c49a16"},"name":"Worthix","address":"180 Sansome St., 4th Floor","city":"San Francisco","state":"California","zip":"94104","country":"United States","lat":37.791917,"lng":-122.400662,"icon":"worthix.png","url":"http://worthix.com","batch":"San Francisco Batch 016","crunchbase_url":"https://www.crunchbase.com/organization/worthix"}
{"_id":{"$oid":"5896b0d5734d1d3956c49a1d"},"name":"Finova Financial","address":"4521 PGA Boulevard, Suite 226","city":"Palm Beach Gardens","state":"Florida","zip":"33418","country":"United States","lat":26.839524,"lng":-80.10646,"icon":"finova.png","url":"http://finovafinancial.com","batch":"San Francisco Batch 016","crunchbase_url":"https://www.crunchbase.com/organization/finova-financial"}
{"_id":{"$oid":"5896b113734d1d3956c49a29"},"name":"Faception","icon":"faception.png","url":"http://faception.com","batch":"San Francisco Batch 016","crunchbase_url":"https://www.crunchbase.com/organization/faception"}
{"_id":{"$oid":"5896b18e734d1d3956c49a31"},"name":"Neutun","address":"101 College Street, Suite 1381","city":"Toronto","state":"Ontario","zip":"M5G 1L7","country":"Canada","lat":43.659891,"lng":-79.388625,"icon":"neutun.png","url":"http://neutun.com","batch":"San Francisco Batch 016","crunchbase_url":"https://www.crunchbase.com/organization/neutun-labs"}
{"_id":{"$oid":"5896b1e4734d1d3956c49a3e"},"name":"WorkAmerica","address":"1875 K Street NW, 4th Floor","city":"Washington","state":"District of Columbia","zip":"20006","country":"United States","lat":38.902955,"lng":-77.043041,"icon":"workamerica.png","url":"http://workamerica.co","batch":"San Francisco Batch 016","crunchbase_url":"https://www.crunchbase.com/organization/workamerica"}
{"_id":{"$oid":"5896b237734d1d3956c49a46"},"name":"Bigfinite","address":"156 2nd Street","city":"San Francisco","state":"California","zip":"94920","country":"United States","lat":37.787108,"lng":-122.399105,"icon":"bigfinite.png","url":"http://bigfinite.com","batch":"San Francisco Batch 016","crunchbase_url":"https://www.crunchbase.com/organization/bigfinite"}
{"_id":{"$oid":"5896b2a3734d1d3956c49a4d"},"name":"Mentimeter","address":"Birger Jarlsgatan 18A","city":"Stockholm","state":null,"zip":"11434","country":"Sweden","lat":59.335393,"lng":18.073794,"icon":"mentimeter.png","url":"http://mentimeter.com","batch":"San Francisco Batch 016","crunchbase_url":"https://www.crunchbase.com/organization/mentimeter"}
{"_id":{"$oid":"5896b5e2734d1d3956c49ac1"},"name":"LINKETT","address":"305 King St. W, Unit 801","city":"Kitchener","state":"Ontario","zip":"N2G 1B9","country":"Canada","lat":43.45151,"lng":-80.495011,"icon":"linkett.png","url":"http://linkett.com","batch":"Silicon Valley Batch 017","crunchbase_url":"https://www.crunchbase.com/organization/linkett"}
{"_id":{"$oid":"5896b68d734d1d3956c49ae8"},"name":"Parkbench","address":"740 Broadview Avenue, Floors 2 \u0026 3","city":"Toronto","state":"Ontario","zip":"M4K 2P1","country":"Canada","lat":43.675469,"lng":-79.358527,"icon":"parkbench.png","url":"http://parkbench.com","batch":"Silicon Valley Batch 017","crunchbase_url":"https://www.crunchbase.com/organization/parkbench-com"}
{"_id":{"$oid":"5896b70f734d1d3956c49b0b"},"name":"Oddup","address":"50 Wing Lok Street, Level 12","city":"Sheung Wan","state":null,"zip":null,"country":"Hong Kong","lat":22.286299,"lng":114.151796,"icon":"oddup.png","url":"http://oddup.com","batch":"Silicon Valley Batch 017","crunchbase_url":"https://www.crunchbase.com/organization/oddup"}
{"_id":{"$oid":"5896b748734d1d3956c49b1c"},"name":"MORI","icon":"mori.png","url":"http://babymori.com","batch":"Silicon Valley Batch 017","crunchbase_url":"https://www.crunchbase.com/organization/mori-2"}
{"_id":{"$oid":"5896b7b3734d1d3956c49b2b"},"name":"The Pill Club","address":"133 Arch St., Suite 7","city":"Redwood City","state":"California","zip":"94062","country":"United States","lat":37.487909,"lng":-122.237943,"icon":"pillclub.png","url":"http://thepillclub.com","batch":"Silicon Valley Batch 017","crunchbase_url":"https://www.crunchbase.com/organization/the-pill-club"}
{"_id":{"$oid":"5896b874734d1d3956c49b5d"},"name":"Coeio","address":"252 Java Street, Suite 347","city":"Brooklyn","state":"New York","zip":"11222","country":"United States","lat":40.731734,"lng":-73.949925,"icon":"coeio.png","url":"http://coeio.com","batch":"Silicon Valley Batch 017","crunchbase_url":"https://www.crunchbase.com/organization/coeio"}
{"_id":{"$oid":"5896b8ca734d1d3956c49b60"},"name":"burstIQ","address":"5790 Regal View Road","city":"Colorado Springs","state":"Colorado","zip":"80919","country":"United States","lat":38.917676,"lng":-104.869242,"icon":"burstiq.png","url":"http://burstiq.com","batch":"Silicon Valley Batch 017","crunchbase_url":"https://www.crunchbase.com/organization/burstiq"}
{"_id":{"$oid":"5896b927734d1d3956c49b68"},"name":"Blurbiz","address":"5504 Morningside Drive","city":"Houston","state":"Texas","zip":"77005","country":"United States","lat":29.716438,"lng":-95.41524,"icon":"blurbiz.png","url":"http://blurbiz.io","batch":"Silicon Valley Batch 017","crunchbase_url":"https://www.crunchbase.com/organization/blurbiz-media"}
{"_id":{"$oid":"5896b969734d1d3956c49b6b"},"name":"Blavity","icon":"blavity.png","url":"http://blavity.com","batch":"Silicon Valley Batch 017","crunchbase_url":"https://www.crunchbase.com/organization/blavity"}
{"_id":{"$oid":"5896b9d0734d1d3956c49b7d"},"name":"Baby2Body","address":"20 Air Street, 4th Floor","city":"London","state":null,"zip":"W1B 5AN","country":"United Kingdom","lat":51.510591,"lng":-0.13656,"icon":"baby2body.png","url":"http://baby2body.com","batch":"Silicon Valley Batch 017","crunchbase_url":"https://www.crunchbase.com/organization/baby2body"}
{"_id":{"$oid":"5896ba3d734d1d3956c49b88"},"name":"Avocode","address":"Italska 10","city":"Prague","state":"Hlavni mesto Praha","zip":"12000","country":"Czech Republic","lat":50.07672,"lng":14.435624,"icon":"avocode.png","url":"http://avocode.com","batch":"Silicon Valley Batch 017","crunchbase_url":"https://www.crunchbase.com/organization/avocode"}
{"_id":{"$oid":"5896bb43734d1d3956c49ba0"},"name":"Simless","icon":"simless.png","url":"http://simless.com","batch":"Silicon Valley Batch 017","crunchbase_url":"https://www.crunchbase.com/organization/simless-inc-"}
{"_id":{"$oid":"5896bbad734d1d3956c49bad"},"name":"RankScience","address":"307 Frederick Street, Unit 4","city":"San Francisco","state":"California","zip":"94117","country":"United States","lat":37.766842,"lng":-122.448296,"icon":"rankscience.png","url":"http://rankscience.com","batch":"Silicon Valley Batch 017","crunchbase_url":"https://www.crunchbase.com/organization/rank-science-2"}
{"_id":{"$oid":"5896bc69734d1d3956c49bdf"},"name":"Qwikwire","address":"1209 Orange Street","city":"Wilmington","state":"Delaware","zip":"19801","country":"United States","lat":39.748437,"lng":-75.547726,"icon":"qwikwire.png","url":"http://qwikwire.com","batch":"Silicon Valley Batch 017","crunchbase_url":"https://www.crunchbase.com/organization/qwikwire-2"}
{"_id":{"$oid":"5896bce3734d1d3956c49be5"},"name":"Montainer","address":"PO Box 9082","city":"Missoula","state":"Montana","zip":"59807","country":"United States","lat":46.852162,"lng":-114.01561,"icon":"montainer.png","url":"http://montainerhomes.com","batch":"Silicon Valley Batch 017","crunchbase_url":"https://www.crunchbase.com/organization/montainer"}
{"_id":{"$oid":"5896bd57734d1d3956c49be7"},"name":"LiveCanary","address":"1 Hallidie Plaza, 2nd Floor","city":"San Francisco","state":"California","zip":"94102","country":"United States","lat":37.784143,"lng":-122.408788,"icon":"livecanary.png","url":"http://livecanary.com","batch":"Silicon Valley Batch 017","crunchbase_url":"https://www.crunchbase.com/organization/livecanary"}
{"_id":{"$oid":"5896bda8734d1d3956c49bef"},"name":"Hamptons Lane","address":"110W 40th St., Suite 1104","city":"New York","state":"New York","zip":"10018","country":"United States","lat":40.753698,"lng":-73.985966,"icon":"hamptonslane.png","url":"http://hamptonslane.com","batch":"Silicon Valley Batch 017","crunchbase_url":"https://www.crunchbase.com/organization/hamptons-lane"}
{"_id":{"$oid":"5896be08734d1d3956c49bf5"},"name":"FuelPanda","icon":"fuelpanda.png","url":"http://fuelpanda.com","batch":"Silicon Valley Batch 017","crunchbase_url":"https://www.crunchbase.com/organization/fuelpanda"}
{"_id":{"$oid":"5896be56734d1d3956c49bf6"},"name":"Efflux Systems","icon":"efflux.png","url":"http://effluxsystems.com","batch":"Silicon Valley Batch 017","crunchbase_url":"https://www.crunchbase.com/organization/efflux-systems"}
{"_id":{"$oid":"5896bebc734d1d3956c49c02"},"name":"Department of Better Technology","address":"337 17th St, Suite 210","city":"Oakland","state":"California","zip":"94612","country":"United States","lat":37.80549,"lng":-122.267076,"icon":"dbt.png","url":"http://dobt.co","batch":"Silicon Valley Batch 017","crunchbase_url":"https://www.crunchbase.com/organization/department-of-better-technology"}
{"_id":{"$oid":"5896bf45734d1d3956c49c29"},"name":"ConceptDrop","address":"222 W. Merchandise Mart Plaza, Suite 1212","city":"Chicago","state":"Illinois","zip":"60654","country":"United States","lat":41.88852,"lng":-87.635448,"icon":"conceptdrop.png","url":"http://conceptdrop.com","batch":"Silicon Valley Batch 017","crunchbase_url":"https://www.crunchbase.com/organization/conceptdrop"}
{"_id":{"$oid":"5896bfbd734d1d3956c49c34"},"name":"Cladwell","address":"700 W Pete Rose Way","city":"Cincinnati","state":"Ohio","zip":"45203","country":"United States","lat":39.095593,"lng":-84.524487,"icon":"cladwell.png","url":"http://cladwell.com","batch":"Silicon Valley Batch 017","crunchbase_url":"https://www.crunchbase.com/organization/cladwell"}
{"_id":{"$oid":"5896c176734d1d3956c49c5c"},"name":"Chefs for Seniors","address":"3086 Providence Street","city":"Sun Prairie","state":"Wisconsin","zip":"53590","country":"United States","lat":43.16667,"lng":-89.277954,"icon":"chefsforseniors.png","url":"http://chefsforseniors.com","batch":"Silicon Valley Batch 017","crunchbase_url":"https://www.crunchbase.com/organization/chefs-for-seniors"}
{"_id":{"$oid":"5896c2a2734d1d3956c49c7a"},"name":"Slang","address":"49 Wyckoff Ave, Suite 126","city":"Brooklyn","state":"New York","zip":"11237","country":"United States","lat":40.705985,"lng":-73.921489,"icon":"slang.png","url":"http://slangthis.com","batch":"Silicon Valley Batch 017","crunchbase_url":"https://www.crunchbase.com/organization/slang"}
{"_id":{"$oid":"5896c3f1734d1d3956c49ca9"},"name":"BeautyDate","icon":"beautydate.png","url":"http://beautydate.com.br","batch":"Silicon Valley Batch 017","crunchbase_url":null}
{"_id":{"$oid":"5896c447734d1d3956c49cb1"},"name":"Pair","address":"3112 63rd Place","city":"Hyattsville","state":"Maryland","zip":"20785","country":"United States","lat":38.928861,"lng":-76.905749,"icon":"pair.png","url":"http://pair3d.com","batch":"Silicon Valley Batch 017","crunchbase_url":"https://www.crunchbase.com/organization/pair-inc"}
{"_id":{"$oid":"5896c4d1734d1d3956c49cbc"},"name":"Nice","address":"421900 Burbank Blvd, Unit 265","city":"Woodland Hills","state":"California","zip":"91367","country":"United States","lat":34.171942,"lng":-118.620703,"icon":"nice.png","url":"http://getnice.com","batch":"Silicon Valley Batch 017","crunchbase_url":"https://www.crunchbase.com/organization/nice-shopping-inc"}
{"_id":{"$oid":"5896c57f734d1d3956c49cd7"},"name":"Cosy","address":"3401 Grays Ferry Ave (Pennovation Center)","city":"Philadelphia","state":"Pennsylvania","zip":"19146","country":"United States","lat":39.941553,"lng":-75.200611,"icon":"cosy.png","url":"http://cosyrobo.com","batch":"Silicon Valley Batch 017","crunchbase_url":"https://www.crunchbase.com/organization/cognitive-operational-systems"}
{"_id":{"$oid":"5896c687734d1d3956c49cf6"},"name":"Stylect","address":"6-8 Bonhill St","city":"London","state":null,"zip":"EC2A","country":"United Kingdom","lat":51.522651,"lng":-0.08524,"icon":"stylect.png","url":"http://stylect.com","batch":"Silicon Valley Batch 017","crunchbase_url":"https://www.crunchbase.com/organization/stylect"}
{"_id":{"$oid":"5896c73d734d1d3956c49d07"},"name":"T + J Designs","icon":"tjdesigns.png","url":"http://tandjdesigns.com","batch":"Silicon Valley Batch 017","crunchbase_url":"https://www.crunchbase.com/organization/t-j-designs"}
{"_id":{"$oid":"5896c7ba734d1d3956c49d0c"},"name":"SidelineSwap","icon":"sidelineswap.png","url":"http://sidelineswap.com","batch":"Silicon Valley Batch 017","crunchbase_url":"https://www.crunchbase.com/organization/sidelineswap"}
{"_id":{"$oid":"5896c801734d1d3956c49d11"},"name":"Worklete","address":"2310 Powell Street, Suite 2450","city":"San Francisco","state":"California","zip":"94133","country":"United States","lat":37.806419,"lng":-122.411254,"icon":"worklete.png","url":"http://worklete.com","batch":"Silicon Valley Batch 017","crunchbase_url":"https://www.crunchbase.com/organization/worklete"}
{"_id":{"$oid":"5896c851734d1d3956c49d17"},"name":"Wivity","address":"665 3rd Street, Suite 150","city":"San Francisco","state":"California","zip":"94107","country":"United States","lat":37.779561,"lng":-122.393027,"icon":"wivity.png","url":"http://wivity.com","batch":"Silicon Valley Batch 017","crunchbase_url":"https://www.crunchbase.com/organization/wivity-inc"}
{"_id":{"$oid":"5896c8db734d1d3956c49d2c"},"name":"Visiblee","address":"105 rue Jules Guesde","city":"Paris","state":null,"zip":"92300","country":"France","lat":48.897241,"lng":2.288937,"icon":"visiblee.png","url":"http://visiblee.biz","batch":"Silicon Valley Batch 017","crunchbase_url":"https://www.crunchbase.com/organization/salezeo"}
{"_id":{"$oid":"5896c924734d1d3956c49d35"},"name":"Villoid","icon":"villoid.png","url":"http://villoid.com","batch":"Silicon Valley Batch 017","crunchbase_url":"https://www.crunchbase.com/organization/villoid"}
{"_id":{"$oid":"5896c98c734d1d3956c49d39"},"name":"TravelFlan","address":"100 Cyberport Road, Unit 1205-1208","city":"Hong Kong","state":null,"zip":null,"country":"Hong Kong","lat":22.262619,"lng":114.130119,"icon":"travelflan.png","url":"http://travelflan.com","batch":"Silicon Valley Batch 017","crunchbase_url":"https://www.crunchbase.com/organization/travelflan"}
{"_id":{"$oid":"5896c9dd734d1d3956c49d43"},"name":"Supergleu","icon":"supergleu.png","url":"http://supergleu.com","batch":"Silicon Valley Batch 017","crunchbase_url":"https://www.crunchbase.com/organization/supergleu"}
{"_id":{"$oid":"5896ca47734d1d3956c49d4d"},"name":"TraceAir","address":"1013 Centre Road, Suite 403","city":"Wilmington","state":"Delaware","zip":"19805","country":"United States","lat":39.757737,"lng":-75.606835,"icon":"traceair.png","url":"http://traceair.net","batch":"Silicon Valley Batch 017","crunchbase_url":"https://www.crunchbase.com/organization/traceair"}
{"_id":{"$oid":"5896caa6734d1d3956c49d59"},"name":"Tallyfy","address":"911 Washington Avenue, Suite 420","city":"St. Louis","state":"Missouri","zip":"63101","country":"United States","lat":38.63142,"lng":-90.192992,"icon":"tallyfy.png","url":"http://tallyfy.com","batch":"Silicon Valley Batch 017","crunchbase_url":"https://www.crunchbase.com/organization/tallyfy-ltd"}
{"_id":{"$oid":"5896cb82734d1d3956c49d84"},"name":"Workplace Arcade","address":"17-19 Yarra St, Suite 302","city":"Abbotsford","state":"Victoria","zip":"3067","country":"Australia","lat":-37.802087,"lng":144.993938,"icon":"workplacearcade.png","url":"http://workplacearcade.com","batch":"Silicon Valley Batch 017","crunchbase_url":"https://www.crunchbase.com/organization/arcade-4"}
{"_id":{"$oid":"58980040734d1d4347579fd7"},"name":"BrightPolicy","address":"350 N Orleans St, Suite 9000","city":"Chicago","state":"Illinois","zip":"60654","country":"United States","lat":41.88852,"lng":-87.63767,"icon":"brightpolicy.png","url":"http://brightpolicy.com","batch":"San Francisco Batch 018","crunchbase_url":"https://www.crunchbase.com/organization/brightpolicy"}
{"_id":{"$oid":"589800cd734d1d4347579fe1"},"name":"BIGcontrols","address":"3030 Bridgeway, Suite 100","city":"Sausalito","state":"California","zip":"94965","country":"United States","lat":37.870537,"lng":-122.503011,"icon":"bigcontrols.png","url":"http://bigcontrols.com","batch":"San Francisco Batch 018","crunchbase_url":"https://www.crunchbase.com/organization/bigcontrols"}
{"_id":{"$oid":"58980136734d1d4347579ff2"},"name":"Auctio","address":"419 Park Avenue South","city":"New York","state":"New York","zip":"10016","country":"United States","lat":40.743654,"lng":-73.983367,"icon":"auctio.png","url":"http://auctioleads.com","batch":"San Francisco Batch 018","crunchbase_url":"https://www.crunchbase.com/organization/auctio"}
{"_id":{"$oid":"589801b8734d1d4347579fff"},"name":"Andromium","address":"1860 El Camino Real, Suite 401","city":"Burlingame","state":"California","zip":"94010","country":"United States","lat":37.596298,"lng":-122.384436,"icon":"andromium.png","url":"http://getsuperbook.com","batch":"San Francisco Batch 018","crunchbase_url":"https://www.crunchbase.com/organization/the-superbook"}
{"_id":{"$oid":"5898027b734d1d434757a047"},"name":"Fragmentic","address":"33 Brivibas Street","city":"Riga","state":null,"zip":"LV-1010","country":"Latvia","lat":56.95524,"lng":24.119481,"icon":"fragmentic.png","url":"http://fragmentic.com","batch":"San Francisco Batch 018","crunchbase_url":"https://www.crunchbase.com/organization/fragmentic"}
{"_id":{"$oid":"589802ed734d1d434757a080"},"name":"Fan Stream","icon":"fanstream.png","url":"http://fanstreamapp.com","batch":"San Francisco Batch 018","crunchbase_url":"https://www.crunchbase.com/organization/fan-stream"}
{"_id":{"$oid":"58980359734d1d434757a0ab"},"name":"DigitalOutposts","icon":"digitaloutposts.png","url":"http://digitaloutposts.com","batch":"San Francisco Batch 018","crunchbase_url":"https://www.crunchbase.com/organization/digitaloutposts"}
{"_id":{"$oid":"589803fd734d1d434757a0f6"},"name":"Datatron Technologies","address":"350 Townsend Street, Suite 134","city":"San Francisco","state":"California","zip":"94107","country":"United States","lat":37.776291,"lng":-122.396525,"icon":"datatron.png","url":"http://datatron.ai","batch":"San Francisco Batch 018","crunchbase_url":"https://www.crunchbase.com/organization/datatron"}
{"_id":{"$oid":"5898046a734d1d434757a10d"},"name":"Croissant","address":"43 W 23rd St, 2nd Floor","city":"New York","state":"New York","zip":"10010","country":"United States","lat":40.742642,"lng":-73.99108,"icon":"croissant.png","url":"http://getcroissant.com","batch":"San Francisco Batch 018","crunchbase_url":"https://www.crunchbase.com/organization/croissant"}
{"_id":{"$oid":"589804ea734d1d434757a12e"},"name":"Homebot","address":"2420 17th Street, 3rd Floor","city":"Denver","state":"Colorado","zip":"80202","country":"United States","lat":39.758451,"lng":-105.007625,"icon":"homebot.png","url":"http://homebot.ai","batch":"San Francisco Batch 018","crunchbase_url":"https://www.crunchbase.com/organization/homebot"}
{"_id":{"$oid":"5898059d734d1d434757a15b"},"name":"OK Play","icon":"okplay.png","url":"http://okplayapp.com","batch":"San Francisco Batch 018","crunchbase_url":"https://www.crunchbase.com/organization/ok-play-2"}
{"_id":{"$oid":"589805ee734d1d434757a186"},"name":"Leapcure","address":"418 Bamboo Lane","city":"Los Angeles","state":"California","zip":"90012","country":"United States","lat":34.065948,"lng":-118.237412,"icon":"leapcure.png","url":"http://leapcure.com","batch":"San Francisco Batch 018","crunchbase_url":"https://www.crunchbase.com/organization/leapcure"}
{"_id":{"$oid":"589806cd734d1d434757a1c8"},"name":"Infraspeak","address":"Rua Nivaldo Dias 183, sala 401","city":"Santa Catarina","state":"Sao Paolo","zip":null,"country":"Brazil","lat":-26.919758,"lng":-49.066391,"icon":"infraspeak.png","url":"http://infraspeak.com","batch":"San Francisco Batch 018","crunchbase_url":"https://www.crunchbase.com/organization/infraspeak"}
{"_id":{"$oid":"58980733734d1d434757a1ee"},"name":"INZMO","address":"Veerenni tn 24","city":"Tallinn","state":"Harjumaa","zip":"10135","country":"Estonia","lat":59.424556,"lng":24.749034,"icon":"inzmo.png","url":"http://inzmo.com","batch":"San Francisco Batch 018","crunchbase_url":"https://www.crunchbase.com/organization/inzmo"}
{"_id":{"$oid":"589807c2734d1d434757a23b"},"name":"Indio","address":"461 2nd Street","city":"San Francisco","state":"California","zip":"94107","country":"United States","lat":37.783688,"lng":-122.393575,"icon":"indio.png","url":"http://useindio.com","batch":"San Francisco Batch 018","crunchbase_url":"https://www.crunchbase.com/organization/indio"}
{"_id":{"$oid":"589808f3734d1d434757a287"},"name":"HeavyConnect","address":"150 S Main St, Suite 130","city":"Salinas","state":"California","zip":"93901","country":"United States","lat":36.676078,"lng":-121.655355,"icon":"heavyconnect.png","url":"http://heavyconnect.com","batch":"San Francisco Batch 018","crunchbase_url":"https://www.crunchbase.com/organization/heavyconnect-2"}
{"_id":{"$oid":"5898094e734d1d434757a299"},"name":"Lighthouse","icon":"lighthouse.png","url":"http://getlighthouse.com","batch":"San Francisco Batch 018","crunchbase_url":"https://www.crunchbase.com/organization/get-lighthouse"}
{"_id":{"$oid":"58994f62734d1d4347586ea9"},"name":"OrderCircle","icon":"ordercircle.png","url":"http://ordercircle.com","batch":"San Francisco Batch 018","crunchbase_url":"https://www.crunchbase.com/organization/ordercircle"}
{"_id":{"$oid":"58994fcb734d1d4347586ec5"},"name":"Paubox","address":"2017 Mission Street, 2nd Floor","city":"San Francisco","state":"California","zip":"94110","country":"United States","lat":37.76482,"lng":-122.419374,"icon":"paubox.png","url":"http://paubox.com","batch":"San Francisco Batch 018","crunchbase_url":"https://www.crunchbase.com/organization/paubox"}
{"_id":{"$oid":"58995027734d1d4347586edf"},"name":"Outsite","address":"402 Oxford Way","city":"Santa Cruz","state":"California","zip":"95060","country":"United States","lat":36.954042,"lng":-122.042603,"icon":"outsite.png","url":"http://outsite.co","batch":"San Francisco Batch 018","crunchbase_url":"https://www.crunchbase.com/organization/outsite"}
{"_id":{"$oid":"58995070734d1d4347586eeb"},"name":"OnFarm","address":"7621 N Del Mar Ave, Suite 101","city":"Fresno","state":"California","zip":"93711","country":"United States","lat":36.848749,"lng":-119.796297,"icon":"onfarm.png","url":"http://onfarm.com","batch":"San Francisco Batch 018","crunchbase_url":"https://www.crunchbase.com/organization/onfarm"}
{"_id":{"$oid":"589950ce734d1d4347586efb"},"name":"OneKloud","address":"123 10th Street","city":"San Francisco","state":"California","zip":"94103","country":"United States","lat":37.775104,"lng":-122.415275,"icon":"onekloud.png","url":"http://onekloud.com","batch":"San Francisco Batch 018","crunchbase_url":"https://www.crunchbase.com/organization/onekloud-2"}
{"_id":{"$oid":"58995124734d1d4347586f10"},"name":"Nonnatech","address":"244 5th Avenue, Suite G264","city":"New York","state":"New York","zip":"10001","country":"United States","lat":40.744627,"lng":-73.987716,"icon":"nonnatech.png","url":"http://nonnatech.com","batch":"San Francisco Batch 018","crunchbase_url":"https://www.crunchbase.com/organization/nonnatech"}
{"_id":{"$oid":"58995183734d1d4347586f1f"},"name":"Melodics","address":"6 Central Road Kingsland","city":"Aukland","state":null,"zip":"1021","country":"New Zealand","lat":-36.87117,"lng":174.744701,"icon":"melodics.png","url":"http://melodics.com","batch":"San Francisco Batch 018","crunchbase_url":"https://www.crunchbase.com/organization/melodics"}
{"_id":{"$oid":"58996b45734d1d434758751b"},"name":"SureBids","address":"Alma 2, Unit 2, Richmond Gate Elegushi","city":"Lagos","state":null,"zip":"101245","country":"Nigeria","lat":6.429324,"lng":3.487001,"icon":"surebids.png","url":"http://surebids.co","batch":"San Francisco Batch 018","crunchbase_url":"https://www.crunchbase.com/organization/suregifts"}
{"_id":{"$oid":"58996bce734d1d4347587533"},"name":"StreamLoan","address":"645 Harrison Street","city":"San Francisco","state":"California","zip":"94107","country":"United States","lat":37.783395,"lng":-122.39571,"icon":"streamloan.png","url":"http://streamloan.io","batch":"San Francisco Batch 018","crunchbase_url":"https://www.crunchbase.com/organization/streamloan-inc"}
{"_id":{"$oid":"58996c2c734d1d434758755e"},"name":"Statsbot","icon":"statsbot.png","url":"http://statsbot.co","batch":"San Francisco Batch 018","crunchbase_url":"https://www.crunchbase.com/organization/statsbot"}
{"_id":{"$oid":"58996cb0734d1d4347587582"},"name":"Squadle","address":"One Broadway, Floor 14","city":"Cambridge","state":"Massachusetts","zip":"02142","country":"United States","lat":42.362837,"lng":-71.083926,"icon":"squadle.png","url":"http://squadle.com","batch":"San Francisco Batch 018","crunchbase_url":"https://www.crunchbase.com/organization/squadle"}
{"_id":{"$oid":"58996d25734d1d43475875ab"},"name":"SimplifiMed","icon":"simplifimed.png","url":"http://simplifimed.com","batch":"San Francisco Batch 018","crunchbase_url":"https://www.crunchbase.com/organization/simplifimed-inc"}
{"_id":{"$oid":"58996df9734d1d43475875ed"},"name":"Silvernest","address":"1630 A 30th Street, Suite 279","city":"Boulder","state":"Colorado","zip":"80301","country":"United States","lat":40.015277,"lng":-105.253219,"icon":"silvernest.png","url":"http://silvernest.com","batch":"San Francisco Batch 018","crunchbase_url":"https://www.crunchbase.com/organization/silvernest"}
{"_id":{"$oid":"58996e6f734d1d434758760d"},"name":"ROHO","address":"1867 Amsterdam Avenue","city":"New York","state":"New York","zip":"10031","country":"United States","lat":40.829819,"lng":-73.944041,"icon":"roho.png","url":"http://roho.io","batch":"San Francisco Batch 018","crunchbase_url":"https://www.crunchbase.com/organization/roho"}
{"_id":{"$oid":"58996f5b734d1d4347587640"},"name":"Printify","address":"Tordenskioldsgate 3","city":"Oslo","state":null,"zip":"0160","country":"Norway","lat":59.913162,"lng":10.736228,"icon":"printify.png","url":"http://printify.it","batch":"San Francisco Batch 018","crunchbase_url":"https://www.crunchbase.com/organization/printify"}
{"_id":{"$oid":"58997033734d1d4347587671"},"name":"Pillsy (now Arthur Health)","address":"119 Pine Street","city":"Seattle","state":"Washington","zip":"98101","country":"United States","lat":47.610011,"lng":-122.340043,"icon":"arthurhealth.png","url":"http://helloarthur.com","batch":"San Francisco Batch 018","crunchbase_url":"https://www.crunchbase.com/organization/arthurhealth"}
{"_id":{"$oid":"58997124734d1d4347587711"},"name":"Up All Night","icon":"upallnight.png","url":"http://upallnight.us","batch":"San Francisco Batch 018","crunchbase_url":"https://www.crunchbase.com/organization/up-all-night"}
{"_id":{"$oid":"58997215734d1d43475877da"},"name":"VisionX","address":"Cardeal Arcoverde 2450","city":"Pinheiros","state":"Sao Paulo","zip":"05408-003","country":"Brazil","lat":-23.565349,"lng":-46.693759,"icon":"visionx.png","url":"http://visionx.co","batch":"San Francisco Batch 018","crunchbase_url":"https://www.crunchbase.com/organization/visionx-2"}
{"_id":{"$oid":"58997293734d1d434758783b"},"name":"Wherefor","address":"233 Wilshire Boulevard, Suite 400","city":"Santa Monica","state":"California","zip":"90401","country":"United States","lat":34.018432,"lng":-118.499858,"icon":"wherefor.png","url":"http://wherefor.com","batch":"San Francisco Batch 018","crunchbase_url":"https://www.crunchbase.com/organization/wherefor"}
{"_id":{"$oid":"58997321734d1d4347587884"},"name":"Voxeet","address":"480 Gate 5 Road ICB, Suite 306B","city":"Sausalito","state":"California","zip":"94965","country":"United States","lat":37.868586,"lng":-122.499525,"icon":"voxeet.png","url":"http://voxeet.com","batch":"San Francisco Batch 018","crunchbase_url":"https://www.crunchbase.com/organization/voxeet"}
{"_id":{"$oid":"58997413734d1d4347587915"},"name":"Usetrace","address":"Lapinlahdenkatu 16","city":"Helsinki","state":null,"zip":"00180","country":"Finland","lat":60.167488,"lng":24.922738,"icon":"usetrace.png","url":"http://usetrace.com","batch":"San Francisco Batch 018","crunchbase_url":"https://www.crunchbase.com/organization/usetrace"}
{"_id":{"$oid":"5899748f734d1d4347587969"},"name":"Trym","icon":"trym.png","url":"http://trym.co","batch":"San Francisco Batch 018","crunchbase_url":"https://www.crunchbase.com/organization/trym"}
{"_id":{"$oid":"5899752f734d1d43475879d7"},"name":"Tackl","address":"156 2nd Street","city":"San Francisco","state":"California","zip":"94105","country":"United States","lat":37.787108,"lng":-122.399105,"icon":"tackl.png","url":"http://tackl.co","batch":"San Francisco Batch 018","crunchbase_url":"https://www.crunchbase.com/organization/tackl"}
{"_id":{"$oid":"58997607734d1d4347587a47"},"name":"Level Therapy","icon":"level.png","url":"http://trylevel.com","batch":"San Francisco Batch 018","crunchbase_url":"https://www.crunchbase.com/organization/level-therapy"}
{"_id":{"$oid":"58997691734d1d4347587a9b"},"name":"Track","icon":"track.png","url":"http://iusetrack.com","batch":"San Francisco Batch 018","crunchbase_url":"https://www.crunchbase.com/organization/track-3"}
{"_id":{"$oid":"589976e3734d1d4347587ab3"},"name":"Treat","icon":"treat.png","url":"http://treat.co","batch":"San Francisco Batch 018","crunchbase_url":"https://www.crunchbase.com/organization/treat-3"}
{"_id":{"$oid":"5899778d734d1d4347587b08"},"name":"Avicennas  (now Zentist)","address":"175 Varick Street, 4th Floor","city":"New York","state":"New York","zip":"10014","country":"United States","lat":40.727422,"lng":-74.005961,"icon":"zentist.png","url":"http://zentist.io","batch":"San Francisco Batch 018","crunchbase_url":"https://www.crunchbase.com/organization/zentist"}
{"_id":{"$oid":"58997814734d1d4347587b2d"},"name":"BeaconsInSpace","address":"359 Newbury Street","city":"Boston","state":"Massachusetts","zip":"02115","country":"United States","lat":42.348393,"lng":-71.087879,"icon":"beacons.png","url":"http://beaconsinspace.com","batch":"San Francisco Batch 018","crunchbase_url":"https://www.crunchbase.com/organization/beaconsinspace"}
{"_id":{"$oid":"589abcd0734d1d7b1f2e60ae"},"name":"Almabase","icon":"almabase.png","url":"http://almabase.com","batch":"Silicon Valley Batch 019","crunchbase_url":"https://www.crunchbase.com/organization/almabase"}
{"_id":{"$oid":"589abd54734d1d7b1f2e60d8"},"name":"Aella Credit","address":"23 Opebi Road","city":"Lagos","state":null,"zip":null,"country":"Nigeria","lat":6.593718,"lng":3.357715,"icon":"aella.png","url":"http://aellacredit.com","batch":"Silicon Valley Batch 019","crunchbase_url":"https://www.crunchbase.com/organization/aella-credit"}
{"_id":{"$oid":"589abdb5734d1d7b1f2e60f4"},"name":"Crema","address":"3535 Chemin Queen‐Mary, Suite 200","city":"Montreal","state":"Quebec","zip":"H3V 1H8","country":"Canada","lat":45.495445,"lng":-73.618992,"icon":"crema.png","url":"http://getcrema.com","batch":"Silicon Valley Batch 019","crunchbase_url":"https://www.crunchbase.com/organization/fika-2"}
{"_id":{"$oid":"589abe06734d1d7b1f2e6112"},"name":"CloudCoffer","icon":"cloudcoffer.png","url":"http://cloudcoffer.com","batch":"Silicon Valley Batch 019","crunchbase_url":"https://www.crunchbase.com/organization/cloudcoffer"}
{"_id":{"$oid":"589abe6a734d1d7b1f2e613a"},"name":"ClaimCompass","icon":"claimcompass.png","url":"http://claimcompass.eu","batch":"Silicon Valley Batch 019","crunchbase_url":"https://www.crunchbase.com/organization/claimcompass"}
{"_id":{"$oid":"589abec6734d1d7b1f2e6161"},"name":"ChangeJar","address":"7 Bayview Road","city":"Ottawa","state":"Ontario","zip":"K1Y 2C5","country":"Canada","lat":45.409444,"lng":-75.727908,"icon":"changejar.png","url":"http://changejar.com","batch":"Silicon Valley Batch 019","crunchbase_url":"https://www.crunchbase.com/organization/changejar"}
{"_id":{"$oid":"589abf23734d1d7b1f2e617a"},"name":"Cardlife","address":"71-75 Shelton Street","city":"London","state":null,"zip":"WC2H 9JQ","country":"United Kingdom","lat":51.51489,"lng":-0.123537,"icon":"cardlife.png","url":"http://cardlifeapp.com","batch":"Silicon Valley Batch 019","crunchbase_url":"https://www.crunchbase.com/organization/cardlife"}
{"_id":{"$oid":"589abf89734d1d7b1f2e61c8"},"name":"bstow","icon":"bstow.png","url":"http://bstow.com","batch":"Silicon Valley Batch 019","crunchbase_url":"https://www.crunchbase.com/organization/bstow"}
{"_id":{"$oid":"589ac067734d1d7b1f2e620f"},"name":"Baloonr","address":"1311 Vine Street, 1st Floor","city":"Cincinnati","state":"Ohio","zip":"45202","country":"United States","lat":39.10984,"lng":-84.51546,"icon":"baloonr.png","url":"http://baloonr.com","batch":"Silicon Valley Batch 019","crunchbase_url":"https://www.crunchbase.com/organization/baloonr"}
{"_id":{"$oid":"589ac0e0734d1d7b1f2e6236"},"name":"Aumet","address":"Postal No. 11821 Khalda /Box No. 2637","city":"Amman","state":null,"zip":null,"country":"Jordan","lat":31.991253,"lng":35.815891,"icon":"aumet.png","url":"http://aumet.me","batch":"Silicon Valley Batch 019","crunchbase_url":"https://www.crunchbase.com/organization/aumet"}
{"_id":{"$oid":"589ac145734d1d7b1f2e626d"},"name":"Ambience Data","address":"2285 Dunwin Drive, Unit 3B","city":"Mississauga","state":"Ontario","zip":"L5L 3S3","country":"Canada","lat":43.534859,"lng":-79.676139,"icon":"ambiencedata.png","url":"http://ambiencedata.com","batch":"Silicon Valley Batch 019","crunchbase_url":"https://www.crunchbase.com/organization/ambience-data"}
{"_id":{"$oid":"589ac286734d1d7b1f2e62dc"},"name":"InnerSpace","address":"185 Spadina Avenue","city":"Toronto","state":"Ontario","zip":"M5T 2C6","country":"Canada","lat":43.649689,"lng":-79.396206,"icon":"innerspace.png","url":"http://innerspace.io","batch":"Silicon Valley Batch 019","crunchbase_url":"https://www.crunchbase.com/organization/innerspace-technology-inc"}
{"_id":{"$oid":"589ac310734d1d7b1f2e6356"},"name":"Idwall","address":"Google Space SP R. Coronel Oscar Porto 70","city":"Sao Paolo","state":null,"zip":"04003-000","country":"Brazil","lat":-23.571107,"lng":-46.649972,"icon":"idwall.png","url":"http://idwall.co","batch":"Silicon Valley Batch 019","crunchbase_url":"https://www.crunchbase.com/organization/idwall"}
{"_id":{"$oid":"589ac373734d1d7b1f2e63de"},"name":"iControl","address":"Heleneborgsgatan 54","city":"Stockholm","state":null,"zip":"117 32","country":"Sweden","lat":59.318934,"lng":18.032921,"icon":"icontrol.png","url":"http://icontrolapp.co","batch":"Silicon Valley Batch 019","crunchbase_url":"https://www.crunchbase.com/organization/icontrol-2"}
{"_id":{"$oid":"589ac449734d1d7b1f2e644d"},"name":"Hykso","address":"5333 Avenue Casgrain, Unit #102","city":"Montreal","state":"Quebec","zip":"H2T 1X6","country":"Canada","lat":45.52617,"lng":-73.595012,"icon":"hykso.png","url":"http://hykso.com","batch":"Silicon Valley Batch 019","crunchbase_url":"https://www.crunchbase.com/organization/hykso-2"}
{"_id":{"$oid":"589ac55c734d1d7b1f2e64e8"},"name":"Homigo","address":"6th Cross Road, 2-10/1","city":"Bangalore","state":"Karnataka","zip":"560076","country":"India","lat":12.979122,"lng":77.578224,"icon":"homigo.png","url":"http://homigo.in","batch":"Silicon Valley Batch 019","crunchbase_url":"https://www.crunchbase.com/organization/homigo"}
{"_id":{"$oid":"589ac5c5734d1d7b1f2e6509"},"name":"GymHit","address":"1111 H Street, Unit #207","city":"Sacramento","state":"California","zip":"95814","country":"United States","lat":38.582408,"lng":-121.490708,"icon":"gymhit.png","url":"http://gymhit.com","batch":"Silicon Valley Batch 019","crunchbase_url":"https://www.crunchbase.com/organization/gymhit"}
{"_id":{"$oid":"589ac5f6734d1d7b1f2e6523"},"name":"Gluwa","icon":"gluwa.png","url":"http://gluwa.com","batch":"Silicon Valley Batch 019","crunchbase_url":"https://www.crunchbase.com/organization/gluwa"}
{"_id":{"$oid":"589ac64b734d1d7b1f2e654c"},"name":"Gestoos","address":"Assaonadors 31","city":"Barcelona","state":null,"zip":"08003","country":"Spain","lat":41.386315,"lng":2.18134,"icon":"gestoos.png","url":"http://gestoos.com","batch":"Silicon Valley Batch 019","crunchbase_url":"https://www.crunchbase.com/organization/gestoos"}
{"_id":{"$oid":"589ac694734d1d7b1f2e6563"},"name":"FLYE","icon":"flye.png","url":"http://flye.co","batch":"Silicon Valley Batch 019","crunchbase_url":"https://www.crunchbase.com/organization/flye-2"}
{"_id":{"$oid":"589ac71c734d1d7b1f2e6597"},"name":"Fingertips Lab","icon":"fingertips.png","url":"http://fingertipslab.com","batch":"Silicon Valley Batch 019","crunchbase_url":"https://www.crunchbase.com/organization/fingertips-lab"}
{"_id":{"$oid":"589ac78d734d1d7b1f2e65cc"},"name":"EventXtra","address":"57-59 Au Pui Wan Street, Suite 312","city":"Hong Kong","state":null,"zip":null,"country":"Hong Kong","lat":22.399169,"lng":114.192795,"icon":"eventxtra.png","url":"http://eventxtra.com","batch":"Silicon Valley Batch 019","crunchbase_url":"https://www.crunchbase.com/organization/picknpoll"}
{"_id":{"$oid":"589ac85c734d1d7b1f2e6629"},"name":"Pluto AI","icon":"plutoai.png","url":"http://plutoai.com","batch":"Silicon Valley Batch 019","crunchbase_url":"https://www.crunchbase.com/organization/pluto-search"}
{"_id":{"$oid":"589ac8b0734d1d7b1f2e6659"},"name":"Pawprint","icon":"pawprint.png","url":"http://getpawprint.com","batch":"Silicon Valley Batch 019","crunchbase_url":"https://www.crunchbase.com/organization/pawprint"}
{"_id":{"$oid":"589ac8f5734d1d7b1f2e667f"},"name":"Park Evergreen","icon":"parkevergreen.png","url":"http://parkevergreen.com","batch":"Silicon Valley Batch 019","crunchbase_url":"https://www.crunchbase.com/organization/park-evergreen"}
{"_id":{"$oid":"589ac954734d1d7b1f2e66bf"},"name":"OWLR","address":"20 Ropemaker Street","city":"London","state":null,"zip":"EC2Y 9AR","country":"United Kingdom","lat":51.51965,"lng":-0.088407,"icon":"owlr.png","url":"http://owlr.com","batch":"Silicon Valley Batch 019","crunchbase_url":"https://www.crunchbase.com/organization/owlr"}
{"_id":{"$oid":"589aca13734d1d7b1f2e6738"},"name":"MyFavorito","address":"Walkmuehlstrasse 1A","city":"Erfurt","state":null,"zip":"99084","country":"Germany","lat":50.970853,"lng":11.022109,"icon":"myfavorito.png","url":"http://myfavorito.com","batch":"Silicon Valley Batch 019","crunchbase_url":"https://www.crunchbase.com/organization/myfavorito"}
{"_id":{"$oid":"589aca68734d1d7b1f2e674d"},"name":"MojiLaLa","icon":"mojilala.png","url":"http://mojilala.com","batch":"Silicon Valley Batch 019","crunchbase_url":"https://www.crunchbase.com/organization/mojilala"}
{"_id":{"$oid":"589acabb734d1d7b1f2e675c"},"name":"Mashvisor","address":"532 Railway Avenue, Unit 729","city":"Campbell","state":"California","zip":"95008","country":"United States","lat":37.281946,"lng":-121.945785,"icon":"mashvisor.png","url":"http://mashvisor.com","batch":"Silicon Valley Batch 019","crunchbase_url":"https://www.crunchbase.com/organization/mashvisor"}
{"_id":{"$oid":"589acb10734d1d7b1f2e67a7"},"name":"LawTova","address":"580 California Street, 12th and 16th Floors","city":"San Francisco","state":"California","zip":"94104","country":"United States","lat":37.792976,"lng":-122.404142,"icon":"lawtova.png","url":"http://lawtova.com","batch":"Silicon Valley Batch 019","crunchbase_url":"https://www.crunchbase.com/organization/lawtova"}
{"_id":{"$oid":"589acb63734d1d7b1f2e67c7"},"name":"KiLife","address":"815 W 1250 S","city":"Orem","state":"Utah","zip":"84058","country":"United States","lat":40.273597,"lng":-111.715483,"icon":"kilife.png","url":"http://kiband.com","batch":"Silicon Valley Batch 019","crunchbase_url":"https://www.crunchbase.com/organization/kiband"}
{"_id":{"$oid":"589acbbf734d1d7b1f2e6804"},"name":"Kompyte","address":"Avda Roma 32-34","city":"Barcelona","state":null,"zip":"08015","country":"Spain","lat":41.381587,"lng":2.146502,"icon":"kompyte.png","url":"http://kompyte.com","batch":"Silicon Valley Batch 019","crunchbase_url":"https://www.crunchbase.com/organization/kompyte"}
{"_id":{"$oid":"589acce9734d1d7b1f2e6890"},"name":"TalentBase","address":"193 Babs Animashaun Street","city":"Lagos","state":null,"zip":null,"country":"Nigeria","lat":6.485827,"lng":3.348478,"icon":"talentbase.png","url":"http://talentbase.ng","batch":"Silicon Valley Batch 019","crunchbase_url":"https://www.crunchbase.com/organization/talentbase-2"}
{"_id":{"$oid":"589acd47734d1d7b1f2e68a6"},"name":"Tagove","address":"1067 Market Street, Suite 3005","city":"San Francisco","state":"California","zip":"94103","country":"United States","lat":37.780867,"lng":-122.411604,"icon":"tagove.png","url":"http://tagove.com","batch":"Silicon Valley Batch 019","crunchbase_url":"https://www.crunchbase.com/organization/tagove"}
{"_id":{"$oid":"589acda6734d1d7b1f2e68c3"},"name":"sickweather","address":"101 N. Haven Street, Suite 301","city":"Baltimore","state":"Maryland","zip":"21224","country":"United States","lat":39.294215,"lng":-76.562456,"icon":"sickweather.png","url":"http://sickweather.com","batch":"Silicon Valley Batch 019","crunchbase_url":"https://www.crunchbase.com/organization/sickweather"}
{"_id":{"$oid":"589ace0f734d1d7b1f2e68fb"},"name":"ShearShare","icon":"shearshare.png","url":"http://shearshare.com","batch":"Silicon Valley Batch 019","crunchbase_url":"https://www.crunchbase.com/organization/shearshare"}
{"_id":{"$oid":"589ace68734d1d7b1f2e6924"},"name":"Scopio","address":"175 Varick Street","city":"New York","state":"New York","zip":"10014","country":"United States","lat":40.727422,"lng":-74.005961,"icon":"scopio.png","url":"http://scop.io","batch":"Silicon Valley Batch 019","crunchbase_url":"https://www.crunchbase.com/organization/scopio"}
{"_id":{"$oid":"589acf2a734d1d7b1f2e69d2"},"name":"RocketBolt","address":"310 Townsend Street, Unit #403","city":"San Francisco","state":"California","zip":"94107","country":"United States","lat":37.777079,"lng":-122.39578,"icon":"rocketbolt.png","url":"http://rocketbolt.com","batch":"Silicon Valley Batch 019","crunchbase_url":"https://www.crunchbase.com/organization/rocketbolt"}
{"_id":{"$oid":"589acfb3734d1d7b1f2e6a20"},"name":"We Are Onyx","address":"6420 Wilshire Boulevard, Suite 1020","city":"Los Angeles","state":"California","zip":"90048","country":"United States","lat":34.063441,"lng":-118.369024,"icon":"weareonyx.png","url":"http://weareonyx.com","batch":"Silicon Valley Batch 019","crunchbase_url":"https://www.crunchbase.com/organization/we-are-onyx"}
{"_id":{"$oid":"589ad05f734d1d7b1f2e6a75"},"name":"UNICORN","address":"No. 180, Section 1, Keelung Rd, 3F","city":"Taipei","state":null,"zip":"110","country":"Taiwan","lat":25.04233,"lng":121.5626721,"icon":"unicorn.png","url":"http://unicornskincare.com/en","batch":"Silicon Valley Batch 019","crunchbase_url":"https://www.crunchbase.com/organization/unicorn-5"}
{"_id":{"$oid":"589ad0d0734d1d7b1f2e6aa1"},"name":"Teleport","address":"Av. Villamont 19","city":"Lausanne","state":"Vaud","zip":"1005","country":"Switzerland","lat":46.518159,"lng":6.63852,"icon":"teleport.png","url":"http://teleport.ninja","batch":"Silicon Valley Batch 019","crunchbase_url":"https://www.crunchbase.com/organization/teleport-4"}
{"_id":{"$oid":"589ad20f734d1d7b1f2e6b4c"},"name":"Fuel For Clover (now Gas Pos)","address":"5184 Caldwell Mill Rd, Suites 204-353","city":"Birmingham","state":"Alabama","zip":"35244","country":"United States","lat":33.386157,"lng":-86.740042,"icon":"gaspos.png","url":"http://gaspos.co","batch":"Silicon Valley Batch 019","crunchbase_url":null}
{"_id":{"$oid":"589ad2b3734d1d7b1f2e6b7f"},"name":"Fuel","icon":"fuel.png","url":"http://tryfuel.com","batch":"Silicon Valley Batch 019","crunchbase_url":"https://www.crunchbase.com/organization/fuel-5"}
{"_id":{"$oid":"589ad32e734d1d7b1f2e6baa"},"name":"OpenDoor","icon":"opendoor.png","url":"http://opendoor.io","batch":"Silicon Valley Batch 019","crunchbase_url":"https://www.crunchbase.com/organization/opendoor-3"}
{"_id":{"$oid":"589ad51d734d1d7b1f2e6c8c"},"name":"Obie (by Tasytt)","address":"175 Longwood Road South, Suite 301A","city":"Hamilton","state":"Ontario","zip":"L8P 0A1","country":"Canada","lat":43.256869,"lng":-79.901034,"icon":"obie.png","url":"http://obie.ai","batch":"San Francisco Batch 020","crunchbase_url":"https://www.crunchbase.com/organization/tasytt"}
{"_id":{"$oid":"589b6b13f36d2837a7c50707"},"name":"Boon","address":"3417 Helms Ave, Unit 1","city":"Culver City","state":"California","zip":"90232","country":"United States","lat":34.027783,"lng":-118.383454,"icon":"boon.png","url":"http://goboon.co","batch":"San Francisco Batch 020","crunchbase_url":"https://www.crunchbase.com/organization/boon-2"}
{"_id":{"$oid":"589b6b9af36d2837a7c50734"},"name":"Alta5","address":"350 Lincoln Rd","city":"Miami Beach","state":"Florida","zip":"33139","country":"United States","lat":25.790354,"lng":-80.131609,"icon":"alta5.png","url":"http://alta5.com","batch":"San Francisco Batch 020","crunchbase_url":"https://www.crunchbase.com/organization/alta5"}
{"_id":{"$oid":"589b6c83f36d2837a7c50843"},"name":"Mycroft","address":"295 Sterling Ave","city":"Pacifica","state":"California","zip":"94044","country":"United States","lat":37.593628,"lng":-122.509904,"icon":"mycroft.png","url":"http://mycroft.ai","batch":"San Francisco Batch 020","crunchbase_url":"https://www.crunchbase.com/organization/mycroft-ai-inc"}
{"_id":{"$oid":"589b6cdaf36d2837a7c50877"},"name":"Littlefund","icon":"littlefund.png","url":"http://littlefund.co","batch":"San Francisco Batch 020","crunchbase_url":"https://www.crunchbase.com/organization/littlefund"}
{"_id":{"$oid":"589b6f90f36d2837a7c509ac"},"name":"Hyphen","address":"30 Cunningham Place","city":"San Francisco","state":"California","zip":"94110","country":"United States","lat":37.759403,"lng":-122.421955,"icon":"hyphen.png","url":"http://hyphenapp.io","batch":"San Francisco Batch 020","crunchbase_url":"https://www.crunchbase.com/organization/hyphen-2"}
{"_id":{"$oid":"589b6fe6f36d2837a7c509c7"},"name":"Govlist","address":"280 Orange Alley","city":"San Francisco","state":"California","zip":"94110","country":"United States","lat":37.749234,"lng":-122.419913,"icon":"govlist.png","url":"http://govlist.us","batch":"San Francisco Batch 020","crunchbase_url":"https://www.crunchbase.com/organization/govlist"}
{"_id":{"$oid":"589b7069f36d2837a7c50a1d"},"name":"Funderful","address":"12/14 Kalku Street","city":"Riga","state":null,"zip":"LV-1050","country":"Latvia","lat":56.948774,"lng":24.109105,"icon":"funderful.png","url":"http://funderful.com","batch":"San Francisco Batch 020","crunchbase_url":"https://www.crunchbase.com/organization/funderful"}
{"_id":{"$oid":"589b70bef36d2837a7c50a51"},"name":"FriendlyData","address":"33 West 17th Street","city":"New York","state":"New York","zip":"10011","country":"United States","lat":40.738835,"lng":-73.993869,"icon":"friendlydata.png","url":"http://friendlydata.io","batch":"San Francisco Batch 020","crunchbase_url":"https://www.crunchbase.com/organization/friendlydata"}
{"_id":{"$oid":"589b715cf36d2837a7c50aba"},"name":"Cybewrite","address":"51 Zabotisky St","city":"Rishon Le Zion","state":null,"zip":null,"country":"Israel","lat":31.965116,"lng":34.799703,"icon":"cybewrite.png","url":"http://cybewrite.com","batch":"San Francisco Batch 020","crunchbase_url":"https://www.crunchbase.com/organization/cybewrite"}
{"_id":{"$oid":"589b7d27f36d2837a7c513dc"},"name":"Court Buddy","address":"701 Brickell Avenue","city":"Miami","state":"Florida","zip":"33131","country":"United States","lat":25.76682,"lng":-80.19062,"icon":"courtbuddy.png","url":"http://courtbuddy.com","batch":"San Francisco Batch 020","crunchbase_url":"https://www.crunchbase.com/organization/court-buddy"}
{"_id":{"$oid":"589b7d7bf36d2837a7c513fb"},"name":"Clanbeat","address":"Telliskivi 60a, (B building 2nd floor)","city":"Tallinn","state":null,"country":"Estonia","zip":"10412","lat":59.439829,"lng":24.728928,"icon":"clanbeat.png","url":"http://clanbeat.com","batch":"San Francisco Batch 020","crunchbase_url":"https://www.crunchbase.com/organization/clanbeat"}
{"_id":{"$oid":"589b7e47f36d2837a7c51482"},"name":"Regard","icon":"regard.png","url":"http://getregard.com","batch":"San Francisco Batch 020","crunchbase_url":"https://www.crunchbase.com/organization/regard"}
{"_id":{"$oid":"589b7e8bf36d2837a7c51516"},"name":"Shoelace","icon":"shoelace.png","url":"http://shoelace.com","batch":"San Francisco Batch 020","crunchbase_url":"https://www.crunchbase.com/organization/shoelace"}
{"_id":{"$oid":"589b7f02f36d2837a7c51587"},"name":"SentiSum","address":"76 Vincent Square","city":"London","state":null,"zip":"SW1P 2PD","country":"United Kingdom","lat":51.494616,"lng":-0.135337,"icon":"sentisum.png","url":"http://sentisum.com","batch":"San Francisco Batch 020","crunchbase_url":"https://www.crunchbase.com/organization/sentisum"}
{"_id":{"$oid":"589b7f61f36d2837a7c515ea"},"name":"Raxar Technology Corporation","address":"600 S Magnolia Ave, Suite 300","city":"Tampa","state":"Florida","zip":"33606","country":"United States","lat":27.938581,"lng":-82.465501,"icon":"raxar.png","url":"http://raxar.com","batch":"San Francisco Batch 020","crunchbase_url":"https://www.crunchbase.com/organization/raxar-technology-corporation"}
{"_id":{"$oid":"589b8096f36d2837a7c516c6"},"name":"Preteckt","address":"88 Union Ave","city":"Memphis","state":"Tennessee","zip":"38103","country":"United States","lat":35.143429,"lng":-90.053759,"icon":"preteckt.png","url":"http://preteckt.com","batch":"San Francisco Batch 020","crunchbase_url":"https://www.crunchbase.com/organization/preteckt"}
{"_id":{"$oid":"589b8101f36d2837a7c516f8"},"name":"Orderly Health","address":"1062 Delaware Street","city":"Denver","state":"Colorado","zip":"80204","country":"United States","lat":39.733513,"lng":-104.992588,"icon":"orderlyhealth.png","url":"http://orderlyhealth.com","batch":"San Francisco Batch 020","crunchbase_url":"https://www.crunchbase.com/organization/orderly-health"}
{"_id":{"$oid":"589b81a8f36d2837a7c517e2"},"name":"Optimity","address":"10 Dundas St E, Suite 600","city":"Toronto","state":"Ontario","zip":"M5B 2G9","country":"Canada","lat":43.65702,"lng":-79.380445,"icon":"optimity.png","url":"http://myoptimity.com","batch":"San Francisco Batch 020","crunchbase_url":"https://www.crunchbase.com/organization/myoptimity"}
{"_id":{"$oid":"589b8225f36d2837a7c5184d"},"name":"Numina","address":"3407 S Jefferson Ave","city":"St. Louis","state":"Missouri","zip":"63118","country":"United States","lat":38.593032,"lng":-90.225859,"icon":"numina.png","url":"http://numina.co","batch":"San Francisco Batch 020","crunchbase_url":"https://www.crunchbase.com/organization/cty"}
{"_id":{"$oid":"589b82c3f36d2837a7c518b2"},"name":"Nazar","address":"Rua do Chacon 274, Unit 201","city":"Recife","state":"Bahia","zip":"52061400","country":"Brazil","lat":-8.039782,"lng":-34.920264,"icon":"nazar.png","url":"http://nazar.io","batch":"San Francisco Batch 020","crunchbase_url":"https://www.crunchbase.com/organization/nazar"}
{"_id":{"$oid":"589b8523f36d2837a7c51a1b"},"name":"UrbanLogiq","address":"7404 King George Blvd","city":"Surrey","state":"British Columbia","zip":"V3W 1N6","country":"Canada","lat":49.137517,"lng":-122.844743,"icon":"urbanlogiq.png","url":"http://urbanlogiq.com","batch":"San Francisco Batch 020","crunchbase_url":"https://www.crunchbase.com/organization/urbanlogiq"}
{"_id":{"$oid":"589b8574f36d2837a7c51a51"},"name":"TrueCare24","address":"440 N Wolfe Rd","city":"Sunnyvale","state":"California","zip":"94085","country":"United States","lat":37.38392,"lng":-122.012844,"icon":"truecare24.png","url":"http://truecare24.com","batch":"San Francisco Batch 020","crunchbase_url":"https://www.crunchbase.com/organization/truecare24"}
{"_id":{"$oid":"589b85c8f36d2837a7c51a6f"},"name":"Text To Ticket","address":"1200 Gough Street, Suite 8B","city":"San Francisco","state":"California","zip":"94109","country":"United States","lat":37.784971,"lng":-122.424299,"icon":"texttoticket.png","url":"http://texttoticket.com","batch":"San Francisco Batch 020","crunchbase_url":"https://www.crunchbase.com/organization/text-to-ticket"}
{"_id":{"$oid":"589b8628f36d2837a7c51a9d"},"name":"YayPay","address":"33 Irving Place","city":"New York","state":"New York","zip":"10003","country":"United States","lat":40.735138,"lng":-73.988245,"icon":"yaypay.png","url":"http://yaypay.com","batch":"San Francisco Batch 020","crunchbase_url":"https://www.crunchbase.com/organization/yaypay-inc"}
{"_id":{"$oid":"589b86d4f36d2837a7c51b01"},"name":"WellTrack","address":"40 Crowther Lane, Suite 130","city":"Fredericton","state":"New Brunswick","zip":"E3C 0J1","country":"Canada","lat":45.931209,"lng":-66.660361,"icon":"welltrack.png","url":"http://mywelltrack.com","batch":"San Francisco Batch 020","crunchbase_url":"https://www.crunchbase.com/organization/welltrack"}
{"_id":{"$oid":"589b87aef36d2837a7c51bc5"},"name":"AllVirtuous","address":"97 South 2nd Street","city":"San Jose","state":"California","zip":"95113","country":"United States","lat":37.33497,"lng":-121.88851,"icon":"allvirtuous.png","url":"http://allvirtuous.com","batch":"San Francisco Batch 020","crunchbase_url":"https://www.crunchbase.com/organization/all-virtuous"}
{"_id":{"$oid":"589b896ef36d2837a7c51d56"},"name":"Digital Mortar","address":"388 Market Street, Suite 1300","city":"San Francisco","state":"California","zip":"94111","country":"United States","lat":37.792342,"lng":-122.398012,"icon":"digitalmortar.png","url":"http://digitalmortar.com","batch":"San Francisco Batch 020","crunchbase_url":null}
{"_id":{"$oid":"589b8b14f36d2837a7c51ed7"},"name":"Cadence","address":"340 S Lemon Ave., Unit 1636","city":"Walnut","state":"California","zip":"91789","country":"United States","lat":34.011877,"lng":-117.85969,"icon":"cadence.png","url":"http://talkbusinessanywhere.com","batch":"San Francisco Batch 020","crunchbase_url":"https://www.crunchbase.com/organization/talkbizanywhere"}
{"_id":{"$oid":"5902bfd9734d1d32590e0251"},"name":"WhoAPI","address":"Radmile Matejcic 10","city":"Rijeka","state":"Licko-Senjska","zip":"51000","country":"Croatia","lat":45.3285338,"lng":14.4655041,"icon":"whoapi.png","url":"http://whoapi.com","batch":"Silicon Valley Batch 005","crunchbase_url":"https://www.crunchbase.com/organization/whoapi"}
